City Name,Country Name,Count,Lat,Lon
Mersin,Türkiye,1114,36.76900,34.67430
Braganca Paulista,Brazil,1574,-22.94340,-46.55810
Tokyo,Japan,14728,35.68370,139.68050
Zhengzhou,China,73760,34.75990,113.64590
Swarthmore,United States,1122,39.90020,-75.35280
San José,Costa Rica,1268,9.95160,-84.06510
Chapecó,Brazil,34222,-27.12140,-52.66040
Arraial do Cabo,Brazil,379,-22.95260,-42.05830
San Diego,United States,49,32.80030,-117.24380
Tomelloso,Spain,373,39.16800,-3.03320
Adana,Türkiye,608,37.06950,35.09070
Morro Agudo,Brazil,346,-20.63880,-48.18590
Philadelphia,United States,6,39.97390,-75.14560
Northwood,United Kingdom,3321,51.61430,-0.41880
Indaiatuba,Brazil,780,-23.10650,-47.17710
Makhachkala,Russia,1631,42.98400,47.51520
Freetown,Antigua and Barbuda,42,17.05390,-61.69920
Centro Municipality,Mexico,2,18.01940,-92.90280
Ulhasnagar,India,96,19.21700,73.14830
Azamino,Japan,812,35.56130,139.54950
Viña del Mar,Chile,3443,-33.02280,-71.55190
Denver,United States,804,39.75010,-104.99570
Vasylkiv,Ukraine,118,50.18990,30.31410
Moscow Oblast,Russia,401,55.59390,37.20460
Buk-gu,South Korea,293,35.60180,129.34910
Molina,Chile,1053,-35.11400,-71.27990
Hopelchén,Mexico,2773,19.90920,-89.83850
Barlinek,Poland,1599,52.99260,15.21740
Videira,Brazil,1381,-27.03230,-51.09960
Haidian,China,4650,39.98810,116.28460
Udon Thani,Thailand,314,17.13500,102.97200
Santa Isabel,Brazil,202,-23.29720,-46.24420
Dežerice,Slovakia,121,48.76110,18.22160
Hermosillo,Mexico,1585,29.21730,-110.88290
Sukabumi,Indonesia,152,-6.92140,106.92590
Pirassununga,Brazil,639,-22.00220,-47.36770
Cyberjaya,Malaysia,11054,2.97090,101.66310
Francisco Beltrão,Brazil,6048,-26.06350,-53.12970
Dalian,China,2547,38.93840,121.62240
Dachne,Ukraine,48,46.57230,30.54350
Itanhaém,Brazil,3238,-24.05890,-46.84560
Uddevalla,Sweden,978,58.34610,11.94790
Tejgaon,Bangladesh,156,23.76550,90.38780
Bedford,United Kingdom,62,52.21010,-0.50060
Denver,United States,149,42.67190,-92.34230
Kansas City,United States,2135,39.10270,-94.57780
Chidambaram,India,1848,11.40680,79.69180
Guanhães,Brazil,488,-18.85590,-42.80130
Adana,Türkiye,1062,36.93150,35.33030
Uiwang-si,South Korea,2461,37.34630,126.97110
Venado Tuerto,Argentina,642,-33.75190,-61.97020
Dallas,United States,6,32.86870,-96.86260
Mexicaltzingo,Mexico,93,19.21050,-99.59600
Santa Clara,United States,18587,37.34170,-121.97530
Jaboatao dos Guararapes,Brazil,69,-8.14400,-34.97750
Oslo,Norway,15961,59.90160,10.73430
Fort Collins,United States,28947,40.54470,-105.10690
Guntur,India,618,16.30070,80.46390
Ensenada,Mexico,658,31.81530,-116.60600
Biritiba Mirim,Brazil,1695,-23.62010,-46.01940
Madrid,Colombia,751,4.73200,-74.26320
La Canada,Mexico,699,20.61140,-100.33500
Herndon,United States,542,38.92580,-77.39390
Singapore,Singapore,586,1.29680,103.80490
Haskovo,Bulgaria,946,41.94100,25.57550
La Tablada,Argentina,7,-34.70400,-58.52910
Bauru,Brazil,1597,-22.31960,-49.06230
Wilton,United States,148,41.58090,-91.01280
Phuket,Thailand,54,7.91660,98.34940
Multan,Pakistan,1978,30.22160,71.47020
Chiang Rai,Thailand,22524,19.89680,99.83090
Wroclaw,Poland,1054,51.10550,17.02810
Temixco,Mexico,29,18.86860,-99.22440
Marau,Brazil,3308,-28.44110,-52.27230
Nantong,China,1937,32.02640,120.86470
Coyoacán,Mexico,15,19.31790,-99.17290
Tijuana,Mexico,5894,32.39210,-116.95430
Prairieville,United States,9,30.30640,-90.94270
Tijuana,Mexico,13043,32.43360,-116.96070
Barishal,Bangladesh,84,22.74130,90.43570
Belém,Brazil,6803,-1.45370,-48.50780
Ludhiana,India,2006,31.00480,75.94630
Lauro de Freitas,Brazil,1738,-12.89750,-38.32700
Gilmer,United States,9,32.60440,-94.84910
Veracruz,Mexico,597,19.19100,-96.22470
Kawanoechō,Japan,57,34.01720,133.57570
Chang-hua,Taiwan,6721,24.07590,120.56570
Makiyivka,Ukraine,19,49.00640,31.67050
Bergen,Norway,4464,60.39630,5.32140
Boa Vista,Brazil,2292,2.82360,-60.67450
Turku,Finland,23,60.43400,22.25520
Arezzo,Italy,11,43.46310,11.87830
Chiayi County,Taiwan,254,23.44610,120.57280
Iporá,Brazil,8,-16.45240,-51.15910
Broumov,Czechia,121,50.58320,16.33670
Nishikichō,Japan,817,35.82920,139.67890
Puebla City,Mexico,2103,19.06310,-98.22170
Mexicali,Mexico,31771,32.57010,-115.38550
Gustavo Adolfo Madero,Mexico,1392,19.50060,-99.08870
North Shields,United Kingdom,3180,55.01680,-1.45100
Birigui,Brazil,1332,-21.26020,-50.31840
Nakhon Ratchasima,Thailand,5759,15.05980,102.22150
São Miguel do Oeste,Brazil,2888,-26.71570,-53.51950
Colombo,Sri Lanka,936,6.93170,79.84820
Prayagraj,India,21,25.44250,81.85170
Napa,United States,4,38.29010,-122.28280
Chelles,France,235,48.87970,2.59430
Berlin,Germany,6,52.44150,13.23590
Leicester,United Kingdom,932,52.60490,-1.14880
Düsseldorf,Germany,9,51.27050,6.81440
Bogotá,Colombia,2747,4.66330,-74.04130
Ruma,Serbia,2815,45.00860,19.82230
Melbourne,United States,33,28.14040,-80.65140
Pazardzhik,Bulgaria,203,42.20420,24.34130
Dallas,United States,810,32.78890,-96.80210
Reseda,United States,3,34.19790,-118.53710
Magelang,Indonesia,3273,-7.47020,110.22130
Santos Lugares,Argentina,10680,-34.60370,-58.53370
Celaya,Mexico,665,20.38250,-100.86620
Hamburg,Germany,1710,53.61080,10.16950
Moravsky Krumlov,Czechia,36,49.04430,16.30770
San Diego,United States,6,32.70970,-117.12280
Bauru,Brazil,19328,-22.27120,-49.13570
Chilpancingo,Mexico,291,17.54450,-99.49750
Liévin,France,767,50.41600,2.78140
Talcahuano,Chile,2288,-36.71740,-73.10680
Rio Claro,Brazil,104,-22.40660,-47.61570
Valenzuela,Philippines,151,14.70610,120.98880
Elâzığ,Türkiye,58,38.63380,39.31220
Fazenda Rio Grande,Brazil,10635,-25.65710,-49.28970
Poio,Spain,438,42.43050,-8.70520
Panguipulli,Chile,282,-39.63690,-72.34150
Seo-gu,South Korea,1141,35.89150,128.54840
Zagreb,Croatia,1930,45.82930,15.97930
Xi'an,China,59029,34.32870,109.03370
Araguaína,Brazil,585,-7.18730,-48.20050
Hangzhou,China,115521,30.29940,120.16120
Bucheon-si,South Korea,1042,37.47590,126.78700
Villa María,Argentina,881,-32.21000,-63.17880
Curitiba,Brazil,5334,-25.42020,-49.27620
Anápolis,Brazil,16101,-16.28870,-49.00810
Osan,South Korea,1355,37.15490,127.06740
České Budějovice,Czechia,2736,48.93450,14.41340
Sullana,Peru,159,-4.90170,-80.68870
Des Moines,United States,5434,41.60210,-93.61240
Fortaleza,Brazil,10906,-3.71390,-38.54090
Itatiba,Brazil,1924,-23.00860,-46.84110
Knoxville,United States,63,35.92430,-83.99650
Heze,China,15,35.23940,115.47190
Toronto,Canada,16994,43.65470,-79.36230
Kanpur,India,471,26.49690,80.32460
Montreal,Canada,5416,45.50750,-73.58870
Cumberland,United States,3490,45.54370,-92.03210
Shirogane,Japan,91,33.58150,130.41130
Fuzhou,China,35265,26.04920,119.29060
Camaçari,Brazil,1008,-12.61900,-38.20570
Carpina,Brazil,518,-7.81750,-35.33070
Jeonju,South Korea,2093,35.83450,127.10570
Barquisimeto,Venezuela,1366,10.06640,-69.35860
Plainview,United States,54,40.77460,-73.47610
St Louis,United States,1023,38.62870,-90.19880
Rybinsk,Russia,532,58.04700,38.78700
Paulo Afonso,Brazil,375,-9.55230,-38.16910
Pamplona,Spain,5329,42.83520,-1.64880
Nova Lima,Brazil,1526,-20.07350,-43.89570
Jacksonville,United States,645,30.33410,-81.65440
Auletta,Italy,377,40.55810,15.41980
Angers,France,90,47.47040,-0.54630
Caldas Novas,Brazil,122,-18.16340,-48.52950
Monterrey,Mexico,1373,25.73170,-100.33110
Etimesgut,Türkiye,63,39.94040,32.69760
Kaski,Nepal,167,28.25220,83.90940
Teixeira de Freitas,Brazil,2565,-17.53210,-39.73790
Goryeong-gun,South Korea,479,35.74960,128.29710
Piracicaba,Brazil,11123,-22.72470,-47.65890
Hajdúnánás,Hungary,2991,47.85410,21.44040
Zuoying,Taiwan,468,22.68680,120.29720
Ariquemes,Brazil,10014,-9.91540,-63.04150
Madrid,Spain,517,40.41690,-3.68410
Sao Gotardo,Brazil,4871,-19.37140,-45.94850
Boa Vista,Brazil,9,-7.27360,-36.15910
Cordeirópolis,Brazil,65,-22.48120,-47.40320
Joinville,Brazil,78899,-26.30330,-48.84130
Carmaux,France,952,44.05280,2.16100
Dakar,Senegal,71,14.69350,-17.44800
Jiya,South Korea,33,35.23030,126.88020
Yuanlin,Taiwan,720,23.94670,120.56100
Alvaro Obregon,Mexico,249,19.36240,-99.20740
Decines-Charpieu,France,508,45.76650,4.96350
Vianópolis,Brazil,6725,-16.85290,-48.45650
Seo-gu,South Korea,916,36.35660,127.38490
London,United Kingdom,31665,51.50740,-0.11960
Cuautitlán Izcalli,Mexico,149,19.63710,-99.19580
Casilda,Argentina,6351,-33.04450,-61.16510
Zlataritsa,Bulgaria,652,43.04840,25.90500
Santa Fe,Argentina,20011,-31.64660,-60.71010
Quezon City,Philippines,3610,14.64750,121.04940
Olinda,Brazil,2,-8.00610,-34.85580
Monterrey,Mexico,19119,25.65890,-100.26510
Vapi,India,95,20.37360,72.90140
Timóteo,Brazil,99,-19.55830,-42.60090
Naha,Japan,8,26.21240,127.67570
San Luis,Argentina,1042,-33.29910,-66.35470
Juárez,Mexico,33,20.86030,-86.98320
Cabanatuan City,Philippines,12822,15.49080,120.96930
Sao Jose,Brazil,14406,-27.61570,-48.62350
Redenção,Brazil,130,-8.06400,-50.18150
Akashi,Japan,534,34.65450,135.02780
Amparo,Brazil,12379,-22.70670,-46.77430
Byala Slatina,Bulgaria,1260,43.47190,23.93340
Sangli,India,147,16.85640,74.55710
Buraidah,Saudi Arabia,6052,26.32640,43.97690
Magnitogorsk,Russia,1712,53.41470,59.02620
Qujing,China,1008,25.48450,103.78710
Dund-Urt,Mongolia,94,48.03410,105.92100
Perm,Russia,47061,58.00410,56.23970
Seodaemun-gu,South Korea,254,37.60390,126.94210
Itanhém,Brazil,334,-17.16720,-40.32420
Seo-gu,South Korea,802,37.61440,126.67530
Maragondon,Philippines,974,14.27110,120.73480
Malacca,Malaysia,3360,2.23000,102.23690
Santa Rita,Brazil,6,-7.10470,-34.97050
Passirano,Italy,21,45.59140,10.07410
Hanzhong,China,45,33.07650,107.03050
Kostroma,Russia,1079,57.76860,40.93520
Sharon,United States,21,42.10330,-71.17720
León,Mexico,3756,21.12540,-101.61970
Timon,Brazil,644,-5.20060,-42.87830
Puno,Peru,1080,-15.84070,-70.01600
Amsterdam,The Netherlands,110,52.31090,4.94530
Cuauhtémoc,Mexico,3,19.41050,-99.12740
Wenzhou,China,457,28.00020,120.65470
Solórzano,Spain,285,43.38170,-3.59020
Gurupi,Brazil,6421,-11.66670,-48.84220
Maracanaú,Brazil,97,-3.87880,-38.62790
Tortuguitas,Argentina,267,-34.51060,-58.75360
Enokido,Japan,12,35.37300,140.04440
Laurel,United States,22,31.71600,-89.07340
Tala,Egypt,90,30.68070,30.94530
Paraty,Brazil,396,-23.17100,-44.66120
Cuauhtémoc,Mexico,1348,19.43610,-99.15410
Nova Iguaçu,Brazil,27766,-22.75390,-43.45190
Vera Cruz do Oeste,Brazil,1,-24.94050,-53.92730
Chandigarh,India,6120,30.73390,76.78890
Teresina,Brazil,544,-5.30510,-42.85020
Dnipro,Ukraine,8,48.47350,35.04600
Bucheon-si,South Korea,174,37.49870,126.78250
San José,Costa Rica,674,9.91450,-84.03790
Harare,Zimbabwe,4,-17.81500,31.04780
Surubim,Brazil,64,-7.86960,-35.75170
Reynosa,Mexico,2338,26.14380,-98.33360
Valentim Gentil,Brazil,39,-20.43170,-50.11810
Newcastle upon Tyne,United Kingdom,167,55.00210,-1.62870
Colmenar Viejo,Spain,89,40.65990,-3.76380
Miass,Russia,524,55.03890,60.09890
Tangjin,South Korea,4809,36.93620,126.72750
Geelong,Australia,81,-38.18040,144.34290
Wuppertal,Germany,302,51.27440,7.21900
São Caetano do Sul,Brazil,22504,-23.62660,-46.56380
Siheung-si,South Korea,164,37.37740,126.72980
Barranquilla,Colombia,331,11.00710,-74.80920
Morón,Argentina,13581,-34.64380,-58.60960
Lucknow,India,5758,26.87560,80.91150
São Bernardo do Campo,Brazil,6063,-23.69500,-46.56160
Feira de Santana,Brazil,18905,-12.23370,-39.06560
Winfield,United States,86,41.87270,-88.14700
Puchong Batu Dua Belas,Malaysia,1616,3.07320,101.62190
Yeongam-gun,South Korea,567,34.74600,126.37450
Veracruz,Mexico,46,19.21390,-96.21980
Thessaloniki,Greece,36,40.64390,22.93580
Al Qatif,Saudi Arabia,361,26.56510,50.01180
Cologne,Germany,59,50.95320,6.91150
Solidaridad,Mexico,4,20.66660,-87.05570
Lublin,Poland,1048,51.24860,22.55970
Springdale,United States,30,36.19580,-94.21430
Mokpo,South Korea,310,34.81630,126.38950
Singapore,Singapore,198,1.35520,103.88590
Seogwipo-si,South Korea,195,33.29670,126.49660
Zagreb,Croatia,115,45.80340,16.04550
Allentown,United States,12,40.63670,-75.43970
Cuernavaca,Mexico,16952,18.94780,-99.21720
Viçosa,Brazil,3235,-20.75810,-42.87700
Karbala,Iraq,31,32.62110,44.02810
General Trias,Philippines,5110,14.43090,120.90250
Avellaneda,Argentina,2655,-34.66450,-58.32950
Neiva,Colombia,19868,2.92080,-75.28300
Santa Maria Chimalhuacan,Mexico,1324,19.41870,-98.94460
Columbus,United States,133909,39.96250,-83.00610
Uijeongbu-si,South Korea,255,37.74130,127.03610
Detroit,United States,19627,42.32550,-83.04150
Burnley,United Kingdom,8,53.79110,-2.21070
Puente Alto,Chile,87,-33.61410,-70.58930
Lakewood,United States,2,33.85150,-118.14200
Seo-gu,South Korea,42,37.50800,126.66500
Los Polvorines,Argentina,1365,-34.50760,-58.68630
Kasuga,Japan,33,32.79650,130.67680
Cachoeiro de Itapemirim,Brazil,117,-20.76900,-41.18800
Gdansk,Poland,97,54.34590,18.58190
Santa Cruz do Sul,Brazil,1850,-29.72490,-52.40590
Los Angeles,United States,959,34.05440,-118.24400
Ōgaki,Japan,48,35.33630,136.61730
Araguari,Brazil,3752,-18.59040,-48.24970
Itinga do Maranhao,Brazil,12,-4.52900,-47.48830
Lowell,United States,9,42.95840,-85.36240
Rio Verde,Brazil,5774,-17.79870,-50.92130
Santa Maria da Boa Vista,Brazil,188,-8.57910,-39.92610
Crato,Brazil,12204,-7.14660,-39.47530
Vila Velha,Brazil,4170,-20.38800,-40.32090
Melbourne,Australia,5895,-37.81590,144.96690
Humble,United States,6,29.94300,-95.25960
Sao Miguel,Brazil,3136,-6.21570,-38.49770
León,Mexico,99,21.11070,-101.60810
Blumenau,Brazil,707,-26.91900,-49.06430
Río Cuarto,Argentina,570,-33.13440,-64.35110
São Paulo,Brazil,148626,-23.53350,-46.63590
Gwalior,India,25,26.23310,78.16920
Monterrey,Mexico,1151,25.75160,-100.40620
Perth,Australia,114,-32.03010,115.97300
Churriana de la Vega,Spain,434,37.14140,-3.64300
Toul,France,1516,48.67370,5.89780
Piscataway,United States,2179,40.55110,-74.46060
Chacabuco,Argentina,297,-34.64200,-60.47110
Passos,Brazil,1817,-20.76350,-46.61870
Hurlingham,Argentina,2131,-34.59960,-58.62660
Rio Branco,Brazil,4159,-9.97570,-67.81340
Socorro,Brazil,35,-22.60600,-46.50970
Cayambe,Ecuador,999,0.02980,-78.14870
Monte Alto,Brazil,343,-21.25560,-48.55930
Rzepnica,Poland,99,54.18260,17.51830
Athis-Mons,France,82,48.70830,2.39100
Alappuzha,India,2116,9.48970,76.32230
Jaú,Brazil,10172,-22.27330,-48.52420
Canning,Argentina,598,-34.84280,-58.50440
East Quogue,United States,2,40.84210,-72.57090
San Francisco de Macorís,Dominican Republic,3578,19.30170,-70.25260
Bangkok,Thailand,98,13.78630,100.50560
Hung Yen,Vietnam,652,20.64730,106.04700
Grójec,Poland,1970,51.86110,20.86250
Yangcheon-gu,South Korea,100,37.51790,126.86820
Manaus,Brazil,61086,-3.10320,-60.02880
Jung-gu,South Korea,59,36.32690,127.43160
Drap,France,33,43.75890,7.31790
Gmina Nowogród Bobrzański,Poland,546,51.80300,15.23970
Puerto Francisco de Orellana,Ecuador,335,-0.47050,-76.99250
Gandia,Spain,1205,38.96570,-0.17880
Colfontaine,Belgium,636,50.41800,3.85540
Warrenton,United States,8,38.71900,-77.74160
Brzozów,Poland,293,49.68860,22.01830
Nagoya,Japan,524,35.17960,136.91660
Brügg,Switzerland,37,47.12130,7.28030
San Nicolás de los Garza,Mexico,7423,25.76330,-100.27830
Pratola Peligna,Italy,31,42.10880,13.86850
Francisco Beltrão,Brazil,16736,-26.08260,-53.05890
Zhongwei,China,6242,37.50450,105.19180
Spiczyn,Poland,12,51.33260,22.74340
Melbourne,Australia,129,-37.98480,145.19810
Brooklyn,United States,25,40.63720,-73.90370
Yecheon-gun,South Korea,1156,36.65410,128.45360
Nacka,Sweden,2447,59.30320,18.15660
Bangkok,Thailand,170,13.71590,100.41700
Beijing,China,510821,39.91100,116.39500
Chicago,United States,1344,41.84860,-87.62880
Bogotá,Colombia,27347,4.69130,-74.03200
Seo-gu,South Korea,97,37.54880,126.65780
Bukit Mertajam,Malaysia,902,5.33230,100.46450
Lima,Peru,184578,-12.04320,-77.02820
Ganzhou,China,1476,25.84430,114.92900
Munich,Germany,1672,48.12460,11.54590
Santa Rosa,Brazil,7070,-29.28250,-55.80420
Santa Cruz de La Palma,Spain,485,28.68120,-17.76090
Maldonado,Uruguay,4377,-34.90140,-54.95160
Dhaka,Bangladesh,13195,23.72720,90.40930
Salvador,Brazil,22961,-12.86710,-38.48070
Bishkek,Kyrgyzstan,60,42.86960,74.59320
Almaty,Kazakhstan,70582,43.24330,76.86460
Rāichūr,India,254,16.20940,77.35510
Nawanshahr,India,195,31.12880,76.10740
Cheongju-si,South Korea,260,36.64300,127.43780
Barueri,Brazil,667,-23.51110,-46.87270
Paris,France,98956,48.83230,2.40750
Jamundí,Colombia,89,3.26020,-76.52900
New York,United States,18,40.75470,-73.96140
Narasaraopet,India,867,16.24210,80.05840
Gustavo Adolfo Madero,Mexico,3173,19.49530,-99.10850
Montreal,Canada,651,45.44990,-73.81040
Fort Lauderdale,United States,13,26.07030,-80.22480
Kalesija,Bosnia and Herzegovina,228,44.43980,18.90660
Staig,Germany,16,48.29860,9.99580
Lipan,United States,3,32.51080,-97.95260
Suzhou,China,2086,31.30930,120.60200
Salatiga,Indonesia,703,-7.32260,110.51890
Da Nang,Vietnam,12470,16.06850,108.22150
Serra,Brazil,97,-20.09800,-40.29370
Tijuana,Mexico,1084,32.40410,-116.81980
Celaya,Mexico,1135,20.43060,-100.78720
Kartal,Türkiye,469,40.90020,29.18730
Plaisir,France,9740,48.82030,1.94970
Taganrog,Russia,3151,47.21890,38.91680
Berlin,Germany,2318,52.44330,13.39370
Dong-gu,South Korea,232,35.14420,129.04040
Sao Pedro,Brazil,2733,-22.55580,-47.90520
Cerignola,Italy,66,41.26640,15.88900
Seattle,United States,8660,47.60340,-122.34140
Karlskrona,Sweden,11,56.16250,15.58010
Tepic,Mexico,15319,21.51790,-104.77470
Vallenar,Chile,253,-28.57100,-70.75660
San José,Costa Rica,758,9.96520,-84.05010
Una,India,389,31.46280,76.27300
Alcazar de San Juan,Spain,331,39.38480,-3.20380
Trujillo,Peru,1709,-8.11910,-79.03550
Gassin,France,1097,43.23200,6.58510
Nossa Senhora do Socorro,Brazil,999,-10.86160,-37.17320
Formosa do Rio Preto Municipality,Brazil,612,-10.88860,-45.91210
Irkutsk,Russia,232,52.29840,104.29030
Ayacucho,Ecuador,3735,-2.21160,-79.88150
Sanchong District,Taiwan,3551,25.06910,121.48780
Ha Long,Vietnam,11,20.94720,107.08330
Juàzeirinho,Brazil,1640,-6.99500,-36.60560
Pohang,South Korea,426,36.01800,129.32170
Krakow,Poland,26018,50.05850,19.93420
Accra,Ghana,13,5.54860,-0.20120
Lyon,France,535,45.74800,4.85000
Kanazawa,Japan,237,36.59680,136.59980
Khandagiri,India,38,20.26340,85.78850
Gangseo-gu,South Korea,1273,35.16280,128.93530
Ashburn,United States,8235,39.01800,-77.53900
Mossoró,Brazil,3244,-5.13840,-37.27820
Jinju,South Korea,2286,35.20480,128.12910
Laferrere,Argentina,151,-34.75030,-58.58270
Tarumã,Brazil,1800,-22.75980,-50.60500
Mesa,United States,51,33.43420,-111.84540
Phu Ninh,Vietnam,866,15.55730,108.42110
Wentorf bei Hamburg,Germany,500,53.49940,10.23960
Le Pontet,France,9675,43.96190,4.85470
Tambaú,Brazil,97,-21.58470,-47.22790
Rio Negrinho,Brazil,23962,-26.41310,-49.56460
Pawłowice,Poland,22,49.96470,18.70580
Caçador,Brazil,16162,-26.76460,-51.12110
Icheon-si,South Korea,1073,37.27700,127.44100
Morrisville,United States,4,35.83320,-78.84730
Algeciras,Spain,771,36.13460,-5.44860
Arica,Chile,734,-18.47870,-70.30270
Pacoima,United States,9,34.25290,-118.41800
Lampa,Chile,1046,-33.28880,-70.90180
Brasília,Brazil,38193,-15.77830,-47.93190
Irvine,United States,16,33.65640,-117.82450
Ivoti,Brazil,3143,-29.59120,-51.16180
Oaxaca City,Mexico,215,17.06380,-96.71270
Espera Feliz,Brazil,304,-20.59110,-41.92070
Castel San Giorgio,Italy,1979,40.78260,14.69570
Yoshizuka,Japan,6,33.60170,130.42440
Funchal,Portugal,88,32.63330,-16.90000
Villupuram,India,234,11.93470,79.49320
Karaganda,Kazakhstan,8758,49.79890,73.09940
Ribas do Rio Pardo,Brazil,25,-20.69950,-53.57560
Hānsi,India,1534,29.10270,75.96640
Nam-gu,South Korea,396,35.12710,129.10080
Le Kremlin-Bicetre,France,797,48.81310,2.36410
Sovetsk,Russia,48,55.08940,21.88900
Atibaia,Brazil,34064,-23.11560,-46.54610
Camarillo,United States,24,34.21930,-118.98420
Washington,United States,5399,38.70950,-78.15390
Vilnius,Lithuania,25305,54.69120,25.28160
Cheyenne,United States,2777,41.14460,-104.81160
Jombang Wetan,Indonesia,1205,-6.01470,106.05390
Jinhua,China,466,29.10030,119.64510
Montevideo,Uruguay,13479,-34.88970,-56.18620
Compiègne,France,125,49.41990,2.82300
Zagazig,Egypt,3,30.58680,31.50260
Changwon,South Korea,824,35.11780,128.48550
Malang,Indonesia,4223,-7.98260,112.63080
Fillmore,United States,3575,38.98220,-112.33390
Shaoyang,China,77,27.24160,111.46560
Champigny-sur-Marne,France,9441,48.81680,2.48800
Gwanak-gu,South Korea,185,37.46250,126.94380
Hillsboro,United States,858,45.53970,-122.96380
Cheonan,South Korea,91,36.84370,127.12800
Petah Tikva,Israel,2064,32.10330,34.88790
Moscow,Russia,1942,55.74820,37.61770
Shibuya,Japan,48,35.66540,139.69770
Sengenchō,Japan,517,35.76610,139.53930
Daegu,South Korea,205,35.87230,128.59240
Bolzano,Italy,362,46.48870,11.33940
Danyang,China,2654,32.00140,119.58060
Rasht,Iran,1510,37.27730,49.58080
Queens,United States,9,40.73070,-73.79320
Pointe-aux-Trembles,Canada,3,45.65000,-73.48330
Yeongdeungpo-gu,South Korea,159,37.51380,126.88570
Melbourne,Australia,805,-37.97350,144.56550
Tekirdağ,Türkiye,4566,41.04940,27.30140
Gdynia,Poland,5270,54.51560,18.52230
Sydney,Australia,440,-33.72610,150.91290
Fortaleza,Brazil,128759,-3.71380,-38.52850
Kaluga,Russia,557,54.52430,36.25830
Gwangsan-gu,South Korea,148,35.19770,126.81770
Vadodara,India,2309,22.30080,73.20430
Banfield,Argentina,533,-34.72650,-58.42040
Iaras,Brazil,1504,-22.83680,-49.10930
Hoshiārpur,India,5,31.54040,75.91350
Adapazarı,Türkiye,685,40.77820,30.40170
Maringá,Brazil,12923,-23.42620,-51.93880
León,Mexico,183,21.08910,-101.63890
Feira de Santana,Brazil,2387,-12.26190,-38.97020
Trollhättan,Sweden,11,58.28540,12.28160
Tlajomulco de Zuniga,Mexico,12336,20.52260,-103.47510
Bellevue,United States,3,47.61310,-122.20530
Grants Pass,United States,16,42.46380,-123.34640
Tunis,Tunisia,16,36.82320,10.17010
Dhaka,Bangladesh,12309,23.77310,90.36570
Rosny-sous-Bois,France,237,48.87400,2.49780
Siliguri,India,220,26.70840,88.43180
Viamão,Brazil,2524,-30.07760,-51.02570
Seongbuk-gu,South Korea,375,37.60310,127.00430
Capelinha,Brazil,25,-17.68730,-42.50570
Saarbrücken,Germany,462,49.27120,7.03130
Benito Juarez,Mexico,7340,19.37830,-99.16210
Sudbury,United Kingdom,720,52.10750,0.69560
San Fernando,Argentina,4924,-34.44590,-58.58360
Machiya,Japan,429,36.08020,136.23110
Durgapur,India,11,23.51590,87.30700
Jose C. Paz,Argentina,24377,-34.50290,-58.75120
Milan,Italy,89849,45.47220,9.19220
La Plata,Argentina,100468,-34.93090,-57.94170
Rio Grande,Argentina,5808,-53.49930,-68.04510
Volgograd,Russia,477,48.80730,44.58170
Amorebieta,Spain,35819,43.21670,-2.73330
Baqubah,Iraq,181,33.75680,44.61240
Berazategui,Argentina,96,-34.78850,-58.18040
Naucalpan,Mexico,303,19.47410,-99.28330
Karachi,Pakistan,3975,24.87940,66.99200
Torrance,United States,14,33.84600,-118.34560
Parvomay,Bulgaria,1800,42.09830,25.21240
Buk-gu,South Korea,2469,35.87590,128.60750
Birmingham,United States,9,33.64540,-86.70140
Campins,Spain,25,41.72770,2.46070
Helsingborg,Sweden,6733,56.04490,12.69200
Ankara,Türkiye,6844,39.92770,32.83220
Seville,Spain,6920,37.40860,-5.99380
Tianjin,China,43861,39.14880,117.17620
Busan,South Korea,2686,35.19650,129.08300
Osasco,Brazil,11836,-23.53120,-46.79010
Stockport,United Kingdom,1,53.41550,-2.12200
Ankara,Türkiye,13890,39.97860,32.82620
Guarujá,Brazil,11536,-23.99610,-46.25340
Tver,Russia,229,56.86510,35.89380
Caetité,Brazil,882,-13.90780,-42.52230
Concórdia,Brazil,21560,-27.23020,-52.00480
Tetovo,North Macedonia,333,42.02260,20.96410
Chillán,Chile,1105,-36.60060,-72.11740
García,Mexico,2,25.79660,-100.45410
Huntington,United States,15,40.86810,-73.40940
Campina Grande,Brazil,484,-7.22700,-35.88290
Frankfurt am Main,Germany,7250,50.10490,8.62950
Barueri,Brazil,3871,-23.49770,-46.86560
Givisiez,Switzerland,7,46.80670,7.12350
Shenyang,China,22164,41.78060,123.43140
Marabá,Brazil,941,-5.38480,-49.13130
Cortés,Honduras,160,15.63330,-88.30000
Divinópolis,Brazil,142,-20.11500,-44.91800
Sheffield,United Kingdom,254,53.38580,-1.46160
Gustavo Adolfo Madero,Mexico,33,19.49410,-99.12890
Manchester,United Kingdom,158,53.38200,-2.25420
Gangbuk-gu,South Korea,579,37.62800,127.02680
Saint Joseph,United States,6,39.78790,-94.80290
Sanliurfa,Türkiye,165,37.15110,38.86300
Almuñécar,Spain,285,36.72990,-3.69030
Windhoek,Namibia,21,-22.55620,17.07590
Pitong,China,825,30.81650,103.88750
Sao Raimundo Nonato,Brazil,3221,-9.05220,-42.60840
Huizhou,China,1254,23.10720,114.39970
Novo Hamburgo,Brazil,2133,-29.67880,-51.13050
Piedras Negras,Mexico,39,28.67380,-100.52890
Istanbul,Türkiye,8055,41.00110,28.96750
Taiyuan,China,97,37.86480,112.56360
Nelspruit,South Africa,4,-25.47910,30.96770
Nanning,China,3927,22.81110,108.31680
Anseong,South Korea,39,37.00510,127.27350
Çankaya,Türkiye,213,39.91110,32.81570
Swansea,United Kingdom,3455,51.62350,-4.03440
Jindo-gun,South Korea,386,34.42910,126.15970
Villa Allende,Argentina,30360,-31.30110,-64.29970
Campo Belo,Brazil,60,-20.92620,-45.23720
Miguel Hidalgo,Mexico,585,19.45880,-99.20180
Francisco Morato,Brazil,12529,-23.26830,-46.70920
Reggio Calabria,Italy,5409,38.11460,15.64520
Campo Grande,Brazil,20223,-20.44280,-54.64640
Pacajus,Brazil,385,-4.18400,-38.51890
Seoul,South Korea,49062,37.57940,126.97540
Le Vaudreuil,France,172,49.25230,1.20520
Santa Barbara,United States,11,34.44500,-119.80460
Antofagasta,Chile,8821,-23.64640,-70.39800
Gwangsan-gu,South Korea,439,35.18120,126.83850
Hwaseong-si,South Korea,73,37.19350,127.07770
Lambeth,United Kingdom,260,51.42030,-0.11750
León,Mexico,60,21.04620,-101.82920
Dragoni,Italy,45,41.27300,14.30040
Bangkok,Thailand,3,13.66710,100.57750
Aguascalientes,Mexico,400,21.94190,-102.27560
Sao Jose do Rio Preto,Brazil,59251,-20.77010,-49.35770
Bang Phli,Thailand,116,13.60000,100.71640
Krnov,Czechia,13012,50.09900,17.72260
Montreal,Canada,2,45.52420,-73.59300
Pescara,Italy,169,42.46180,14.20520
Madrid,Spain,58679,40.41630,-3.69340
Katy,United States,9,29.73880,-95.83090
Jequié,Brazil,109,-13.92300,-40.08370
Surbo,Italy,153,40.39220,18.14380
Nagercoil,India,48,8.18320,77.42770
Kagoshima,Japan,438,31.57590,130.56190
Reynosa,Mexico,3132,25.81260,-98.37510
Jilin City,China,2546,43.85060,126.55680
Zurich,Switzerland,707,47.38570,8.53480
Inocência,Brazil,18832,-19.67000,-52.04370
Banhā,Egypt,34,30.45810,31.17600
Srpski Miletic,Serbia,14829,45.55430,19.20340
Olavarría,Argentina,71,-36.90180,-60.28550
Funabashi,Japan,1323,35.65320,139.64160
Beasain,Spain,390,43.04910,-2.19070
Damanhur,Egypt,18,31.03210,30.47160
Sigtuna,Sweden,1175,59.61350,17.72560
Mogilev,Belarus,64,53.92480,30.34880
Liloan,Philippines,945,10.39990,124.00320
Pervomaiskyi,Ukraine,580,49.38410,36.21980
Quixeramobim,Brazil,291,-5.13570,-39.34570
Hurlingham,Argentina,2826,-34.57050,-58.62690
Velilla de San Antonio,Spain,720,40.36160,-3.48450
Settimo Milanese,Italy,1006,45.47610,9.05980
Itumbiara,Brazil,9,-18.32770,-49.44430
Torrejón de Ardoz,Spain,409,40.45860,-3.47190
Sao Tome,Brazil,1156,-23.52460,-52.51500
Jardinópolis,Brazil,1723,-20.98640,-47.81430
Cedar Knolls,United States,457566,40.82290,-74.45920
Mirassol d'Oeste,Brazil,3196,-15.63520,-58.00510
Brisbane,Australia,30964,-27.49460,153.06210
Apucarana,Brazil,484,-24.78200,-51.16540
Cabo Frio,Brazil,5974,-22.89020,-42.02320
San Juan,Argentina,17232,-31.43740,-68.56120
Torreón,Mexico,183,25.53970,-103.42900
Izmir,Türkiye,97,38.47670,27.09910
Peshawar,Pakistan,21,34.01550,71.51120
São Paulo,Brazil,302320,-23.62830,-46.64090
Puerto Madryn,Argentina,1983,-42.76200,-65.05390
Erode,India,6,11.34580,77.73340
Barra Mansa,Brazil,6,-22.54230,-44.17020
Amsterdam,The Netherlands,135,52.38120,4.92630
Plovdiv,Bulgaria,642,42.15130,24.75180
Cabo de Santo Agostinho,Brazil,363,-8.27510,-35.08600
Caldas Novas,Brazil,250,-17.73400,-48.65940
Huddinge,Sweden,956,59.24100,17.98080
Bogotá,Colombia,1632,4.60230,-74.11700
Sliven,Bulgaria,11428,42.68420,26.33420
Dublin,Ireland,14,53.36300,-6.24390
Barra Do Garcas,Brazil,635,-15.35000,-52.48020
Dublin,Ireland,385,53.34020,-6.27120
Chernihiv,Ukraine,36,51.50550,31.29330
Recife,Brazil,13996,-8.05670,-34.88150
Waterloo,United States,2002,42.47090,-92.33470
Riobamba,Ecuador,7317,-1.67270,-78.64830
Kaithal,India,632,29.80150,76.40000
Vecindario,Spain,956,27.84780,-15.45170
New Orleans,United States,744,29.96270,-90.06760
New Taipei,Taiwan,13606,24.94660,121.58600
Crevillent,Spain,28944,38.24910,-0.80350
Giza,Egypt,216,30.00800,31.21940
Washington,United States,1130,38.87010,-76.99480
Ankara,Türkiye,123,39.91900,32.85330
Gimhae,South Korea,180,35.26820,128.86810
Jamestown,United States,9,42.09300,-79.24400
Garanhuns,Brazil,3110,-8.94320,-36.49440
Bhojpur,Nepal,1204,28.03130,82.29570
Wŏnju,South Korea,3411,37.39210,127.88130
Chicago,United States,30,41.87190,-87.65890
Karachi,Pakistan,96,24.92460,67.08700
Mars,United States,15,40.70030,-80.03510
Sannomaru,Japan,932,35.17900,136.89390
Kawaguchi,Japan,1944,35.81620,139.68570
Ecatepec,Mexico,63,19.55230,-99.02980
Volzhsky,Russia,1516,48.79270,44.77490
Sialkot,Pakistan,207,32.42600,74.36440
Philadelphia,United States,804,39.95280,-75.16460
Conroe,United States,12,30.22540,-95.49710
Caibi,Brazil,1816,-27.03340,-53.28040
Minsk,Belarus,202,53.90070,27.57090
Mexico City,Mexico,354,19.38370,-99.17570
Geoje,South Korea,2584,34.88350,128.61820
Neu-Isenburg,Germany,223,50.04700,8.70240
Teresina,Brazil,27087,-5.08540,-42.80300
Nègrepelisse,France,307,44.07770,1.52310
Fīrozābād,India,63,28.70670,77.83090
Córdoba,Argentina,1296,-31.40570,-64.18490
Dongducheon-si,South Korea,94,37.93680,127.05990
Alicante,Spain,4024,38.34140,-0.48430
Hoofddorp,The Netherlands,33072,52.31250,4.64450
San Juan del Río,Mexico,204,20.39950,-99.99980
Ackerly,United States,3,32.52640,-101.71950
Yilan,Taiwan,306,24.75740,121.74210
Itaguara,Brazil,594,-20.38100,-44.54720
Cheddar,United Kingdom,575,51.27180,-2.77410
Barra do Corda,Brazil,15,-5.55950,-45.28880
Futako,Japan,238,35.60990,139.60780
San Juan Bautista,Argentina,12018,-34.81200,-58.33700
Cuauhtémoc,Mexico,16770,19.41290,-99.14780
La Neuville-en-Hez,France,7,49.40370,2.33190
Veracruz,Mexico,992,19.19260,-96.26580
Catanduva,Brazil,25297,-21.12590,-48.96410
Mukeriān,India,665,31.95610,75.62120
McLean,United States,1122,38.93070,-77.16730
Boisbriand,Canada,6,45.61820,-73.87610
Taastrup,Denmark,20,55.65370,12.29870
Jhajjar,India,383,28.60360,76.64970
Samsun,Türkiye,96,41.24770,36.23950
Maceió,Brazil,3064,-9.64970,-35.70900
Bischheim,France,345,48.61710,7.75670
Mutum,Brazil,59,-19.92540,-41.44170
Travagliato,Italy,228,45.52840,10.08000
Limoeiro,Brazil,24710,-7.85090,-35.44510
Datang'an,China,42883,29.69160,120.16750
Presidente Prudente,Brazil,1744,-21.95840,-51.31700
Córdoba,Spain,18,37.89940,-4.77410
Buca,Türkiye,715,38.39670,27.16120
Gravataí,Brazil,1215,-29.90900,-50.95700
San José,Costa Rica,13907,9.93460,-84.07070
Istanbul,Türkiye,3674,40.95970,29.11660
Juazeiro do Norte,Brazil,13457,-7.13850,-39.25030
Tomah,United States,1800,43.99440,-90.48360
Vélizy-Villacoublay,France,3491,48.78550,2.19710
Itapecerica da Serra,Brazil,5315,-23.72450,-46.84610
Itainópolis,Brazil,28,-7.45520,-41.54170
Rishon LeTsiyyon,Israel,4550,31.96420,34.78760
Klaten,Indonesia,67,-7.70490,110.60190
Santo Domingo,Dominican Republic,1842,18.51610,-69.89670
Izumo,Japan,2761,35.35960,132.75250
Kuala Lumpur,Malaysia,2869,3.14120,101.68500
Carmona,Spain,418,37.47260,-5.63880
Iloilo City,Philippines,241,10.70190,122.56220
Grand Prairie,United States,22,32.76660,-97.00750
Ludwigshafen am Rhein,Germany,213,49.49910,8.40470
Manila,Philippines,8278,14.59670,120.97920
Montreal,Canada,403,45.50630,-73.57940
Bordeaux,France,9209,44.84120,-0.58060
Ibirataia,Brazil,322,-13.97290,-39.63710
Marietta,United States,35,33.95210,-84.54750
Berlin,Germany,2597,52.52030,13.38490
Linfen,China,4870,36.09640,111.52180
Zhangzhou,China,464,24.50270,117.64950
Cagliari,Italy,4996,39.23020,9.12100
Kamensk-Uralsky,Russia,45,56.40460,61.92100
Guatemala City,Guatemala,13023,14.63430,-90.51550
Miskolc,Hungary,19,48.09780,20.78840
Warsaw,Poland,2011,52.25100,21.20910
Taylor,United States,16,42.23160,-83.26590
Sorocaba,Brazil,5990,-23.49960,-47.45180
Karanganyar Wetankali,Indonesia,231,-6.84190,110.81200
Rimini,Italy,1230,44.05450,12.56860
Votuporanga,Brazil,29117,-20.48110,-50.01460
Pativilca,Peru,5951,-10.70000,-77.78330
Rānīganj,India,1520,26.08240,87.23550
Boa Vista do Jauato,Brazil,379,-2.77030,-65.28240
Dhaka,Bangladesh,1903,23.74600,90.38200
Centro Municipality,Mexico,2022,18.09590,-92.88980
Mardin,Türkiye,119,37.23060,40.61040
Derventa,Bosnia and Herzegovina,306,44.98120,17.91500
Sério,Brazil,426,-29.40300,-52.24310
Oujda,Morocco,3,34.68010,-1.90860
Québec,Canada,1904,46.81270,-71.22260
Buk-gu,South Korea,229,35.19280,126.87430
Chaguanas,Trinidad and Tobago,1175,10.51110,-61.42370
Perth,Australia,188,-31.90280,115.85500
Granada,Spain,6224,37.20040,-3.58650
Heroica Matamoros,Mexico,485,25.87000,-97.56130
Araras,Brazil,23876,-22.30950,-47.33030
Upper Darby,United States,9,39.95610,-75.27190
Pingtung City,Taiwan,187,22.67450,120.49100
Gijang-gun,South Korea,535,35.27290,129.22460
Kuala Lumpur,Malaysia,3475,3.06040,101.68940
Anyang-si,South Korea,285,37.39070,126.91670
São Carlos,Brazil,16168,-21.90340,-47.87880
Weybridge,United Kingdom,6695,51.37050,-0.45130
Sao Joaquim da Barra,Brazil,984,-20.58140,-47.85470
Zapopan,Mexico,6137,20.63360,-103.45550
Port Montt,Chile,12523,-41.47090,-72.94360
Shchaslyve,Ukraine,13,50.37970,30.80130
Pathanāmthitta,India,30,9.26120,76.78330
Karawang,Indonesia,5,-6.30880,107.31600
Natal,Brazil,62,-5.79640,-35.20310
Samarra,Iraq,13,34.19310,43.88740
Torrent,Spain,1050,39.42960,-0.46760
Namyangju,South Korea,2684,37.54490,127.20160
Taperoá,Brazil,667,-13.56870,-39.21670
Appleton,United States,149,44.33350,-88.43880
Geumjeong-gu,South Korea,215,35.28690,129.07790
Poza Rica,Mexico,5805,20.52000,-97.45110
Bela Vista de Goias,Brazil,6301,-16.97400,-48.91150
Joensuu,Finland,130,62.60690,29.78230
Birmingham,United Kingdom,1154,52.48670,-1.89890
Hitachi,Japan,209,36.59830,140.61930
Stolberg,Germany,2646,50.77930,6.21540
Frederick,United States,3,39.36410,-77.46220
Resplendor,Brazil,50,-19.20270,-41.14340
St Petersburg,Russia,13335,59.94170,30.30960
Lima region,Peru,22624,-11.85000,-76.45000
San Nicolás de los Arroyos,Argentina,351,-33.32450,-60.22000
Vaxjo,Sweden,11,56.87460,14.81240
Pereiaslav,Ukraine,13,50.06680,31.44790
Santa Clara,United States,27863,37.39310,-121.96200
Jacareí,Brazil,1676,-23.29090,-45.97430
Trudobelikovskiy,Russia,6390,45.27290,38.16330
Guarulhos,Brazil,60164,-23.41180,-46.43920
Mendoza,Argentina,2,-32.85740,-68.83680
Kuwait City,Kuwait,12574,29.36450,47.98890
Namyangju,South Korea,168,37.58650,127.22180
Nagano,Japan,137,36.63150,138.17920
Clara City,United States,922,44.96480,-95.35330
Haining,China,720,30.53840,120.68890
Trizidela do Vale,Brazil,96,-4.57310,-44.62270
Namdong-gu,South Korea,6339,37.39430,126.70800
Mumbai,India,39348,19.07480,72.88560
Aparecida,Brazil,1042,-22.84280,-45.23460
Reus,Spain,187,41.15480,1.12120
Oskarshamn,Sweden,109,57.26690,16.45460
Meco,Spain,3598,40.55020,-3.33160
Arcos,Brazil,10638,-20.24570,-45.56600
Coquimbo,Chile,404,-29.95330,-71.33490
Ulan Bator,Mongolia,2915,47.90940,106.88190
Wuhan,China,43868,30.58900,114.26810
La Paz,Bolivia,22476,-16.50020,-68.14930
Bromley,United Kingdom,97,51.40230,0.04580
Busan,South Korea,303,35.10010,129.04330
Stara Zagora,Bulgaria,143,42.43610,25.63940
Marseille,France,6767,43.29510,5.38610
Istanbul,Türkiye,23735,41.03000,28.96010
Doha,Qatar,9985,25.29250,51.53210
Ankara,Türkiye,1907,39.89590,32.86300
Tarlac City,Philippines,4634,15.48050,120.60020
Lago Vista,United States,18,30.45090,-97.95200
Volta Redonda,Brazil,8306,-22.52180,-44.10120
Concepción del Uruguay,Argentina,1682,-32.48470,-58.22050
Kajang,Malaysia,172,3.00810,101.77190
Higuerote,Venezuela,534,10.48190,-66.10410
Fernando de la Mora,Paraguay,2473,-25.33850,-57.51180
Izmir,Türkiye,10074,38.46470,27.13500
Cyberjaya,Malaysia,34892,2.93040,101.66270
Sao Joaquim de Bicas,Brazil,12904,-20.05780,-44.24980
Bucharest,Romania,2461,44.49460,26.05780
Svay Rieng,Cambodia,2907,11.08730,105.80710
Maracaibo,Venezuela,26061,10.66580,-71.62100
Podgorica,Montenegro,2098,42.44110,19.26320
Akhisar,Türkiye,9549,38.91130,27.84120
Sao Pedro da Aldeia,Brazil,58,-22.85450,-42.12890
Manama,Bahrain,69,26.24100,50.57790
Apizaco,Mexico,13252,19.41550,-98.14020
Aversa,Italy,7551,40.97580,14.21010
San Isidro,Argentina,1582,-34.47270,-58.52430
Gaborone,Botswana,2,-24.64370,25.91120
Bacoor,Philippines,37361,14.45600,120.94010
Dallas,United States,750,32.81370,-96.87040
Sevastopol,Ukraine,1021,44.60890,33.53000
Dalseong-gun,South Korea,61,35.86680,128.46750
Ansan-si,South Korea,741,37.32530,126.81780
Falkenberg,Sweden,813,56.90660,12.50300
Vigía,Venezuela,8999,10.28090,-67.66390
Ostrołęka,Poland,37,53.07210,21.57230
Hrodna,Belarus,1080,53.68750,23.82810
Monterrey,Mexico,1361,25.64840,-100.31950
Stains,France,908,48.94750,2.38580
Waco,United States,6,31.51540,-97.12190
Indaiatuba,Brazil,651,-23.08890,-47.21270
Jaboticabal,Brazil,8481,-21.20240,-48.29740
Venustiano Carranza,Mexico,132,19.41090,-99.10880
Monção,Brazil,33,-3.52960,-45.30750
Kanata,Canada,4940,45.37360,-75.91800
Haimen,China,378,31.89370,121.17570
Santo Domingo,Dominican Republic,14,18.49140,-69.90000
Krishnagiri,India,1001,12.51910,78.21040
Londrina,Brazil,65773,-23.31280,-51.15960
Novosibirsk,Russia,6,54.84760,83.09820
Belgrade,Serbia,32126,44.80460,20.46370
Frankfurt am Main,Germany,6449,49.99070,8.67310
Santa Rita,Brazil,207,-6.48180,-38.49290
Haeundae-gu,South Korea,893,35.17970,129.13620
Bathinda,India,438,30.20600,74.93020
Santo Domingo,Dominican Republic,8436,18.46150,-69.89650
Verviers,Belgium,508,50.59310,5.85720
Washington,United States,2587,38.89400,-77.03650
Brandon,United States,6,32.30460,-89.96220
Lipetsk,Russia,15,52.58820,39.60230
Temryuk,Russia,142,45.27570,37.38640
Burzaco,Argentina,499,-34.83900,-58.38860
Auckland,New Zealand,686,-36.84260,174.72730
Mérida,Mexico,946,20.96700,-89.62380
Dong-gu,South Korea,1446,35.89090,128.63650
Kuala Lumpur,Malaysia,276,3.09470,101.67990
Campo do Tenente,Brazil,103,-25.95670,-49.66200
Santo Domingo de los Colorados,Ecuador,810,-0.23710,-79.14460
Argences,France,1673,49.12440,-0.17170
Conceicao do Jacuipe,Brazil,2791,-12.42570,-38.70630
Canary Wharf,United Kingdom,8936,51.50640,-0.02000
Sao Vicente Ferrer,Brazil,77,-7.60590,-35.50360
Cologno Monzese,Italy,14544,45.52960,9.27370
Fremont,United States,8275,37.56250,-122.00040
Telgate,Italy,55,45.62480,9.84770
Sagunto,Spain,7185,39.68020,-0.26350
Orange,United States,15,33.81440,-117.85220
Seo-gu,South Korea,768,35.13660,126.86560
Cartagena,Spain,165,37.61600,-1.00250
Kirindiwela,Sri Lanka,49,7.04430,80.12510
Puebla City,Mexico,2899,19.01540,-98.19120
Jieyang,China,100,23.54920,116.36170
Catamarca,Argentina,142,-28.43330,-65.75000
Jastrzębie Zdrój,Poland,37,49.95490,18.59880
Rui'an,China,60,27.77760,120.65470
Bambuí,Brazil,612,-20.10070,-45.98650
Gandhinagar,India,45,23.21670,72.68330
Boone,United States,3,36.20990,-81.67240
Varzea da Palma,Brazil,1017,-17.45960,-44.74370
Peristeri,Greece,1448,38.01650,23.68640
Prior Lake,United States,199,44.70980,-93.41290
Puebla,Mexico,15067,19.40380,-99.08920
Modena,Italy,1456,44.65340,10.92310
Hwaseong-si,South Korea,177,37.21840,127.04960
San Pedro Sula,Honduras,3411,15.49670,-88.03380
Hässleholm,Sweden,302,56.16040,13.76870
São Leopoldo,Brazil,7166,-29.75920,-51.14770
Mejia de Navarrete,Dominican Republic,585,19.57010,-70.88120
Guacara,Venezuela,1223,10.22850,-67.87000
Dębica,Poland,10019,50.04500,21.39960
Visakhapatnam,India,4205,17.67740,83.20360
Oaxaca City,Mexico,1864,17.06650,-96.72260
Tuxtla Gutiérrez,Mexico,512,16.76000,-93.14380
Varzea Paulista,Brazil,7480,-23.21780,-46.83850
Castelldefels,Spain,1589,41.25680,1.93870
Molins de Rei,Spain,474,41.42070,2.01600
Bucharest,Romania,1080,44.45080,26.01960
Sumaré,Brazil,7892,-22.82130,-47.26160
The Bronx,United States,3,40.85180,-73.87050
Nice,France,711,43.70450,7.25970
Ibagué,Colombia,37,4.43370,-75.23740
Newcastle upon Tyne,United Kingdom,100,54.97420,-1.61500
Zibo,China,22,36.79980,117.96970
Sulaymaniyah,Iraq,1695,35.56410,45.43260
Balsas,Brazil,194,-8.42730,-46.48550
Badalona,Spain,1943,41.45310,2.22520
Bardhaman,India,18,23.25280,87.85820
Rio do Sul,Brazil,5109,-27.19900,-49.62870
Puebla City,Mexico,467,19.05340,-98.22460
Mazatlán,Mexico,2087,23.46840,-106.30600
Franconville,France,318,48.98400,2.23270
Chungcheongnam-do,South Korea,45,36.50300,127.00280
Chekhov,Russia,3102,55.14690,37.47040
Seeb,Oman,2171,23.66730,58.19120
Gwacheon-si,South Korea,775,37.43660,126.99630
Bourges,France,4511,47.08030,2.40000
Farmingdale,United States,75,40.73060,-73.43130
Radom,Poland,445,51.39840,21.15850
Mérida,Mexico,105,21.09870,-89.64680
Dhemāji,India,125,27.48230,94.58910
Congonhas,Brazil,877,-20.53160,-43.85910
Ciudad Obregón,Mexico,1225,27.30640,-109.88640
Kristiansand,Norway,7,58.14280,7.98870
Victor Rosales,Mexico,245,22.99500,-102.66510
Liège,Belgium,480,50.63360,5.57360
Tabira,Brazil,2276,-7.59450,-37.49060
Taboao da Serra,Brazil,4634,-23.62350,-46.79080
Alegrete,Brazil,4257,-29.78390,-55.79070
Pocheon-si,South Korea,2608,37.89270,127.20090
Urussanga,Brazil,22,-28.47530,-49.30800
Longyan,China,1155,25.06940,117.01270
Tacna,Peru,6881,-18.00520,-70.24890
Aachen,Germany,285,50.76880,6.07580
Uauá,Brazil,4171,-9.84140,-39.23030
Seocho-gu,South Korea,7640,37.49060,127.01680
Helsinki,Finland,9282,60.17970,24.93440
Smolensk,Russia,969,54.76090,32.12540
Yeoncheon-gun,South Korea,1366,38.09480,127.07840
Aizu-wakamatsu Shi,Japan,180,37.48680,139.95020
Varginha,Brazil,264,-21.56530,-45.41260
North Palm Beach,United States,33,26.82860,-80.05870
Chengdu,China,27213,30.64980,104.05550
Buriticupu,Brazil,2919,-4.51970,-46.37710
Senhor do Bonfim,Brazil,22439,-10.42670,-40.10440
Hsinchu,Taiwan,795,24.80650,120.97060
Agde,France,48,43.31550,3.47040
Diadema,Brazil,5801,-23.69550,-46.61410
Pudong,China,3987,31.24500,121.49550
Jingmen,China,166,31.03560,112.20880
Meridian,United States,6,43.65020,-116.43430
Ho Chi Minh City,Vietnam,49046,10.82200,106.62570
Brownsville,United States,3,35.61710,-89.26580
Fresno,Colombia,502,5.14750,-75.03160
Ajmer,India,294,26.45290,74.64320
Delhi,India,426733,28.65420,77.23730
Zhongli District,Taiwan,1709,24.96140,121.24370
Puerto Plata,Dominican Republic,1560,19.80580,-70.67850
Gangnam-gu,South Korea,644,37.48380,127.05010
Suwon,South Korea,744,37.25670,126.95360
Casserengue,Brazil,23031,-6.77500,-35.80660
Nuremberg,Germany,1939,49.40500,11.16170
Faisalabad,Pakistan,9714,31.37090,73.03360
Tijuana,Mexico,133,32.48810,-116.82200
Solidaridad,Mexico,704,20.65050,-87.07910
San Antonio,United States,6467,29.42270,-98.49270
Penza,Russia,43,53.19500,44.99450
Tirupur,India,616,11.14240,77.34220
Bom Jardim de Minas,Brazil,3615,-21.94390,-44.12190
Nam-gu,South Korea,68,35.13620,129.07830
Xochimilco,Mexico,3,19.25750,-99.08840
Praia,Cabo Verde,14,14.92300,-23.50800
Safford,United States,227,32.82730,-109.62660
Incheon,South Korea,11,37.45170,126.70060
Jodhpur,India,303,26.26920,73.00900
Neuquén,Argentina,17762,-38.94910,-68.06270
Vitry-sur-Seine,France,235,48.78660,2.39850
Criciúma,Brazil,363,-28.67520,-49.36860
Belém,Brazil,28447,-1.34500,-48.42190
Indore,India,2865,22.71700,75.83370
Concordia do Para,Brazil,5247,-1.86150,-47.96320
Jinju,South Korea,1831,35.16620,128.04490
Guacarí,Colombia,1987,3.76310,-76.33440
Guaranda,Ecuador,822,-1.59680,-79.00130
Partizánske,Slovakia,5473,48.62340,18.38530
Ameca,Mexico,34,20.53370,-104.02480
Kawahara,Japan,688,34.74780,135.86120
Guaymas,Mexico,4923,27.94620,-110.82230
Stavanger,Norway,3898,58.97310,5.74270
Santo Domingo,Dominican Republic,16110,18.46490,-69.88650
Babol,Iran,6718,36.54400,52.66680
Zárate,Argentina,456,-34.06300,-59.05310
Edison,United States,9,40.52370,-74.41510
Köseköy,Türkiye,1843,40.70400,29.99570
Mexicali,Mexico,29,32.55530,-115.42080
Sangrur,India,618,30.24460,75.84800
Istanbul,Türkiye,9,41.01850,28.98540
Buxton,United States,5,43.64010,-70.52130
Dronten,The Netherlands,16376,52.52810,5.71370
Vilnius,Lithuania,2,54.74920,25.43890
Pontarlier,France,646,46.90300,6.35910
Denizli,Türkiye,932,37.84680,29.08480
Berazategui,Argentina,7089,-34.73950,-58.25730
Grosuplje,Slovenia,6139,45.95820,14.66680
Jiaxing,China,2889,30.74880,120.74860
Alvorada,Brazil,149,-29.98540,-51.03640
Rewāri,India,103,28.19300,76.61240
Amsterdam,The Netherlands,99,52.37190,4.88290
Izmir,Türkiye,615,38.41350,27.11890
Benidorm,Spain,570,38.53580,-0.13510
São Mateus,Brazil,242,-18.78840,-40.05250
Teresópolis,Brazil,14999,-22.30830,-42.87880
Tampico,Mexico,6,22.27860,-97.90430
Barcelona,Spain,979,41.41620,2.15430
Calgary,Canada,10,51.15640,-114.05660
Palangkaraya,Indonesia,14364,-2.20740,113.91640
Ávila,Spain,2241,40.65920,-4.70410
Imperatriz,Brazil,391,-5.38670,-47.53820
Ghaziabad,India,1976,28.66500,77.44770
Portland,United States,744,45.51920,-122.69010
Tlaxcala City,Mexico,447,19.34060,-98.19090
Cambiano,Italy,1586,44.96680,7.77660
Ribeirao do Pinhal,Brazil,396,-23.38510,-50.43130
Zurich,Switzerland,676,47.40210,8.57520
Mirassolândia,Brazil,62,-20.59300,-49.48430
Cuautitlán Izcalli,Mexico,8,19.69370,-99.22800
Kwun Tong,Hong Kong,1184,22.31400,114.21400
Mīrpur,Bangladesh,1194,23.82330,90.36500
Madrid,Spain,22,40.43300,-3.58470
Luhansk,Ukraine,159,48.56070,39.32310
Uiryeong-gun,South Korea,9,35.29510,128.29190
Figueres,Spain,10758,42.26680,2.95760
Guaramiranga,Brazil,54,-4.22570,-38.96550
Itajaí,Brazil,458,-26.97710,-48.77410
Rivne,Ukraine,233,50.62230,26.23960
Viçosa,Brazil,300,-20.73420,-42.89370
Barra Longa,Brazil,2103,-20.27860,-43.07170
Raleigh,United States,6,35.81230,-78.54690
Sandy,United States,18,45.37880,-122.22150
Ciudad Obregón,Mexico,1985,27.42220,-109.92590
Căușeni,Moldova,17,46.64800,29.41540
Perugia,Italy,5,43.11080,12.39800
Nowon-gu,South Korea,65,37.65540,127.07220
Columbus,United States,642,40.09460,-83.01180
Ōtsu,Japan,90,35.00120,135.86510
Isidro Casanova,Argentina,17647,-34.70000,-58.58750
Orizaba,Mexico,1690,18.85020,-97.09450
St. Gallen,Switzerland,191,47.40600,9.30900
Islington,United Kingdom,836,51.52690,-0.09910
Turmero,Venezuela,13390,10.22820,-67.48470
Guwahati,India,8242,26.12060,91.65230
Seongnam-si,South Korea,962,37.35640,127.11280
Garner,United States,24,35.68280,-78.59770
Minneapolis,United States,6,44.97050,-93.23890
Caxias do Sul,Brazil,44909,-29.17210,-51.17840
Ottoville,United States,864,40.93380,-84.34380
Ansan-si,South Korea,657,37.30600,126.83310
Täby,Sweden,165,59.44170,18.06370
Istanbul,Türkiye,8061,41.02560,28.88590
Cajazeiras,Brazil,10444,-6.91990,-38.57330
Xitun,Taiwan,3,24.18300,120.64190
Itabira,Brazil,13896,-19.57700,-43.28140
Fairbanks,United States,44,64.84010,-147.72020
Ouro Preto do Oeste,Brazil,569,-10.74810,-62.21580
San Francisco,United States,42,37.77970,-122.41590
Rennes,France,2568,48.11000,-1.67440
Ibema,Brazil,1916,-25.16240,-53.00980
Buk-gu,South Korea,195,35.96160,128.54130
Thisted,Denmark,12,56.97650,8.62660
Alvaro Obregon,Mexico,5271,19.38930,-99.19900
Dourados,Brazil,735,-22.14370,-54.80470
Horgoš,Serbia,167,46.15780,19.96460
Arapiraca,Brazil,1026,-9.74380,-36.59310
Las Condes,Chile,48,-33.41320,-70.57020
Mazatlán,Mexico,24643,23.21430,-106.38080
Brussels,Belgium,1268,50.87100,4.33560
Bangkok,Thailand,16,14.33020,99.91580
Gothenburg,Sweden,326,57.70650,11.96700
Gangbuk-gu,South Korea,14,37.64450,127.00370
Paju,South Korea,1093,37.95210,126.88530
Sejong,South Korea,1197,36.59160,127.29160
Huskvarna,Sweden,333,57.80100,14.26180
Manta,Ecuador,551,-0.96350,-80.71440
Huế,Vietnam,976,16.47040,107.60090
Kollam,India,29,8.88140,76.58500
Pindamonhangaba,Brazil,178,-22.89010,-45.45750
Itabuna,Brazil,6928,-14.88110,-39.36360
Alexandria,Egypt,179,30.99770,29.74320
La Rioja,Argentina,16302,-29.35830,-66.75830
Banyuwangi,Indonesia,1164,-8.24710,114.38780
Stockholm,Sweden,125,59.38400,17.83550
Adelaide,Australia,12272,-34.92810,138.59990
Boydton,United States,6794,36.65340,-78.37500
Ankara,Türkiye,655,39.99570,32.86680
San Angelo,United States,6,31.47120,-100.43850
Araçatuba,Brazil,680,-21.20160,-50.43030
Detroit,United States,84,42.36730,-83.13290
Marthandam,India,601,8.30500,77.21910
Araçariguama,Brazil,30,-23.41960,-47.07780
Agua Boa,Brazil,20,-14.13580,-52.49090
Kunming,China,33420,25.00880,102.65130
Venustiano Carranza,Mexico,48,19.43210,-99.09470
Melbourne,Australia,902,-37.92580,145.06900
Medan,Indonesia,42110,3.58470,98.66290
Bursa,Türkiye,320,40.23470,28.97290
Los Barrios,Spain,1555,36.18060,-5.49860
Bekasi,Indonesia,10856,-6.23520,106.99220
Kōyōdai,Japan,9,34.87910,135.40500
Jiaozuo,China,3570,35.24170,113.23390
Northampton,United Kingdom,48,52.24660,-0.86330
Stafford,United States,39,38.45550,-77.43260
Donghae-si,South Korea,60,37.61260,129.28080
Cheonan,South Korea,1349,36.81160,127.10480
Brasov,Romania,35,45.65240,25.61090
Oral,Kazakhstan,7577,51.22900,51.35770
Hilversum,The Netherlands,14183,52.22830,5.19710
St Louis,United States,3,38.59040,-90.34670
Anyang-si,South Korea,4800,37.37920,126.91470
Maputo,Mozambique,1355,-25.97070,32.60100
Chicago,United States,552,41.87970,-87.64350
Santa Rita do Sapucai,Brazil,1486,-22.25500,-45.67840
Bhogpur,India,154,31.56110,75.64480
Mosquera,Colombia,786,4.70270,-74.23240
Cernusco sul Naviglio,Italy,6436,45.52190,9.33460
Cambridge,United Kingdom,6,52.20870,0.09860
La Louvière,Belgium,45,50.48560,4.18940
Sugao,Japan,3,35.58400,139.56210
Brent,United Kingdom,496,51.54260,-0.24490
Singapore,Singapore,224,1.32720,103.91470
Geumsan-gun,South Korea,1798,36.10240,127.48290
Saenz Pena,Argentina,3326,-34.60050,-58.53010
Kuala Lumpur,Malaysia,7314,3.16710,101.67080
Ipoh,Malaysia,23,4.61170,101.10450
Can Tho,Vietnam,310,10.03590,105.78080
Pataskala,United States,24,40.00350,-82.67260
Seo-gu,South Korea,1157,36.30200,127.38230
Rustavi,Georgia,227,41.55500,44.98050
Catalão,Brazil,5997,-18.15920,-47.94740
Ajman,United Arab Emirates,4707,25.44100,55.53200
Ludwigshafen am Rhein,Germany,1189,49.48410,8.37400
Metepec,Mexico,1470,19.23910,-99.59860
Seongnam-si,South Korea,3647,37.45410,127.14040
San Miguel,Argentina,3014,-34.54310,-58.71190
Osmaniye,Türkiye,147,37.20220,36.06710
Ponto Belo,Brazil,5687,-18.25510,-40.49560
Reading,United Kingdom,6882,51.44250,-0.92670
Buk-gu,South Korea,81,35.17880,126.86160
Toronto,Canada,225,43.62270,-79.38920
Los Angeles,United States,6,34.03220,-118.28360
Béjaïa,Algeria,3,36.46820,4.78910
Botosani,Romania,1594,47.75020,26.67130
Montreal,Canada,378,45.52050,-73.74700
Marseille,France,641,43.37360,5.35470
Suzano,Brazil,9393,-23.54410,-46.30460
Cosenza,Italy,176,39.29920,16.24930
Rybnik,Poland,6153,50.09140,18.53850
Tehran,Iran,1685,35.68240,51.41580
Kao Liao,Thailand,1121,15.84740,100.08310
Padula,Italy,11495,40.33990,15.66150
Americana,Brazil,14479,-22.74010,-47.33020
Ufa,Russia,2931,54.75050,55.94570
Curicó,Chile,9977,-34.98200,-71.23200
Kanazawa,Japan,365,36.61250,136.60890
Campos dos Goytacazes,Brazil,347,-21.67500,-41.45570
Villa Ballester,Argentina,9071,-34.54070,-58.56250
Royal Oak,United States,6,42.49330,-83.13500
Letnitsa,Bulgaria,173,43.30920,25.07760
Saint-Denis,France,3058,48.92750,2.36230
Realeza,Brazil,22367,-25.67590,-53.54940
Conceicao do Tocantins,Brazil,21,-12.09880,-47.27050
San Vicente de Tagua Tagua,Chile,28,-34.43930,-71.07680
Le Passage,France,541,44.20130,0.60810
San José,Costa Rica,1196,9.94450,-84.14550
Abiko,Japan,109,35.86990,140.00930
Zaozhuang,China,285,34.86440,117.55270
Delicias,Mexico,4422,28.16320,-105.47090
Tangerang,Indonesia,571,-6.17700,106.62840
Calama,Chile,1284,-22.46760,-68.93350
Mysłowice,Poland,194,50.21140,19.14070
Melville,United States,3,40.79740,-73.40630
Sabadell,Spain,5009,41.57930,2.07950
Utase,Japan,63,35.63390,140.03910
Sarajevo,Bosnia and Herzegovina,6098,43.84530,18.35920
Seoul,South Korea,3146,37.55290,126.95020
Berkel en Rodenrijs,The Netherlands,371,51.99530,4.47140
Vilhena,Brazil,96,-12.74810,-60.14270
Kaharlyk,Ukraine,323,49.86390,30.83390
Izmir,Türkiye,97,38.38760,27.06000
Krakow,Poland,306,50.10130,20.08130
Neópolis,Brazil,2087,-10.35700,-36.66870
Bogotá,Colombia,580,4.58340,-74.14280
Gwangyang,South Korea,1548,34.94600,127.70050
Chambéry,France,391,45.56740,5.92750
Quetzaltenango,Guatemala,5248,14.83450,-91.51830
Amaporã,Brazil,1320,-23.13630,-52.83810
Palermo,Italy,27574,38.13020,13.32900
Juiz de Fora,Brazil,13527,-21.74400,-43.43400
Kaohsiung City,Taiwan,6807,22.61480,120.31390
Heroica Zitacuaro,Mexico,97,19.43960,-100.33030
Istanbul,Türkiye,45,41.06790,29.03180
Zrenjanin,Serbia,33,45.38090,20.38590
Dhaka,Bangladesh,12,23.81750,90.40960
Taubaté,Brazil,160,-23.02080,-45.55080
Torreón,Mexico,119,25.50420,-103.39730
Los Angeles,United States,8912,34.07260,-118.26100
Casablanca,Morocco,476,33.57920,-7.61330
Gimpo-si,South Korea,448,37.61770,126.71960
Karlstad,Sweden,867,59.39740,13.50550
Falconara Marittima,Italy,2057,43.63000,13.40690
New Hampton,United States,298,43.05600,-92.30850
Mejorada del Campo,Spain,525,40.39130,-3.47990
Yunlin,Taiwan,1758,23.71130,120.38970
Libertad,Argentina,844,-34.69090,-58.68870
Ecatepec,Mexico,53,19.61320,-99.05450
Emmenbrücke,Switzerland,103,47.07970,8.26070
Itanhaém,Brazil,4877,-24.18310,-46.78890
Tultitlan de Mariano Escobedo,Mexico,7,19.59550,-99.17460
Santos,Brazil,2744,-24.01820,-46.35120
Bangkok,Thailand,227,13.75110,100.50490
Imphal,India,1842,24.81030,93.93900
Guadalajara,Mexico,4567,20.67100,-103.32990
Izhevsk,Russia,284,56.84890,53.23160
Padang,Indonesia,3519,-0.94970,100.35050
Sao Jose do Herval,Brazil,147,-29.06100,-52.27520
Ozersk,Russia,97,55.75850,60.70790
Mexicali,Mexico,410,30.99150,-114.80570
Sète,France,87,43.40300,3.69730
Amman,Jordan,7850,31.95550,35.94350
Huesca,Spain,45,42.13710,-0.41240
Bangkok,Thailand,19,13.68550,100.50030
Atlanta,United States,693,33.78380,-84.44550
San Pedro de la Paz,Chile,974,-36.83390,-73.10160
Chittoor,India,58,13.20570,79.09940
Manchester,United Kingdom,3,53.47980,-2.33070
Venustiano Carranza,Mexico,20784,19.45040,-99.08970
Bucharest,Romania,11403,44.41520,26.16600
Marseille,France,30989,43.31780,5.41250
Brasília,Brazil,72891,-15.77920,-47.93410
Čakovec,Croatia,130,46.38620,16.43080
Columbus,United States,28,39.98810,-83.04790
Santurtzi,Spain,7312,43.32990,-3.02810
Durango,Spain,3490,43.17440,-2.63560
Petaling Jaya,Malaysia,1000,3.10700,101.63440
Campinas,Brazil,65484,-22.89500,-47.04390
Reynosa,Mexico,59,25.78520,-98.47370
Bhiwandi,India,78,19.27900,73.06040
Kowloon City,Hong Kong,1163,22.33610,114.19990
San Salvador,El Salvador,51912,13.68060,-89.18030
Kampala,Uganda,1,0.32100,32.57140
Gyeongsan-si,South Korea,106,35.82210,128.78620
Helsinki,Finland,5955,60.17190,24.93470
Tres Pontas,Brazil,7212,-21.40170,-45.49280
Gustavo Adolfo Madero,Mexico,1013,19.45940,-99.09700
Montreal,Canada,11,45.56070,-73.65310
Lagoa Vermelha,Brazil,19504,-28.21610,-51.47230
Nazrēt,Ethiopia,6,8.55570,39.25020
Winnipeg,Canada,8665,49.78340,-97.10360
Pasto,Colombia,873,1.21460,-77.27850
Yeosu,South Korea,47,34.76340,127.63520
Boardman,United States,518224,45.82340,-119.72570
Amora,Portugal,1041,38.63060,-9.11100
Surat,India,2420,21.18880,72.82930
Kiryat Ono,Israel,862,32.05590,34.85630
Madisonville,United States,21,30.95790,-95.90700
Szczecin,Poland,25221,53.42860,14.54750
Xapuri,Brazil,4256,-10.59660,-68.64890
Sanmu,Japan,36,35.62150,140.43400
Iriondo,Argentina,167,-31.31450,-60.75630
Kansas City,United States,6,39.05370,-94.59060
Ciudad Nezahualcoyotl,Mexico,119,19.38180,-98.97810
Lelystad,The Netherlands,1640,52.52000,5.46360
Manado,Indonesia,613,1.48100,124.85180
Arras,France,26706,50.29220,2.78040
Oranjestad,Aruba,12560,12.51470,-70.03400
Karabük,Türkiye,167,41.06730,32.49740
Singapore,Singapore,50,1.37590,103.96390
Yuseong-gu,South Korea,382,36.33560,127.30610
el Masnou,Spain,556,41.47650,2.32090
Nuevo Laredo,Mexico,187,27.47900,-99.67240
Mérida,Venezuela,7976,8.58970,-71.15870
Chongqing,China,25746,29.56890,106.55770
Beauharnois,Canada,247,45.32200,-73.87410
Lambari,Brazil,92,-21.98460,-45.35190
Marikina City,Philippines,1053,14.65040,121.12760
Odesa,Ukraine,497,46.47520,30.73380
Santa Luzia,Brazil,22,-19.76950,-43.85800
Seropédica,Brazil,165,-22.74050,-43.70760
Tecámac,Mexico,285,19.63430,-99.03680
Veranópolis,Brazil,1745,-28.97900,-51.55210
St Louis,United States,712,38.63640,-90.19850
Tamarindo,Costa Rica,204,10.28590,-85.79640
Gifu,Japan,1310,35.83300,136.94560
Osorno,Chile,5385,-40.57560,-73.14390
Braila,Romania,291,45.26620,27.98040
Inzai,Japan,1459,35.81840,140.12320
Yuncheng,China,578,35.01950,110.98480
Årsta,Sweden,174,59.30240,18.04850
Campinas,Brazil,4918,-22.90350,-47.05650
Frankfurt am Main,Germany,1633,50.10210,8.53810
Sahiwal,Pakistan,39,30.73890,73.14780
Trento,Italy,667,46.06820,11.11400
Everett,United States,1,47.89480,-122.20310
Cape Town,South Africa,28,-33.91000,18.43040
Sand in Taufers,Italy,162,46.90800,11.96150
Amphoe Phra Pradaeng,Thailand,33,13.66910,100.53320
Kyiv,Ukraine,21523,50.45800,30.53030
Picos,Brazil,547,-7.10570,-41.50720
Charlotte,United States,1405,35.23690,-80.89570
Barrinha,Brazil,151,-21.22400,-48.08390
Sant'Agata Li Battiati,Italy,2437,37.56180,15.08390
Hamburg,Germany,144,53.58440,10.00200
Jászapáti,Hungary,225,47.51890,20.15200
Messina,Italy,7193,38.19790,15.55630
Alagoinhas,Brazil,1026,-12.00490,-38.35870
Dhule,India,673,20.90730,74.77090
Singapore,Singapore,3,1.33930,103.90180
Atlanta,United States,45231,33.74850,-84.38710
Princesa Isabel,Brazil,4723,-7.64870,-38.04260
Capela,Brazil,2472,-9.39340,-36.12390
Oviedo,Spain,317,43.35620,-5.81440
Tirupati,India,1460,13.64090,79.41920
San Diego,United States,62,32.91670,-117.09030
Bremen,Germany,36,53.10630,8.77550
Chikugo Shi,Japan,198,33.21000,130.49350
Singapore,Singapore,76,1.32950,103.86300
Madrid,Spain,3578,40.45220,-3.66450
Pergamino,Argentina,237,-33.90320,-60.54670
Tha Ruea,Thailand,56,14.56470,100.73000
Berlin,Germany,2,52.48390,13.31330
Bavorov,Czechia,9307,49.11820,14.08890
Seattle,United States,848,47.49020,-122.30040
Bupyeong-gu,South Korea,423,37.50070,126.70760
Brisbane,Australia,12858,-27.46790,153.03250
Lund,Sweden,48,55.70370,13.19460
Yangzhou,China,6978,32.42040,119.42520
Bridgeport,United States,6,41.20450,-73.19880
Leme,Brazil,499,-22.17830,-47.34270
Chorzów,Poland,451,50.31080,18.98100
Jongno-gu,South Korea,892,37.61300,126.96230
Alessandria,Italy,10,44.90930,8.60920
Parma,Italy,1156,44.79900,10.32340
Binzhou,China,322,37.36160,118.02150
Staten Island,United States,9,40.56970,-74.11840
Chihuahua City,Mexico,192,28.71370,-106.20900
Tula,Russia,646,54.20210,37.61790
Samara,Russia,5655,53.19440,50.15980
Port Edwards,United States,1379,44.35200,-89.86720
Chelyabinsk,Russia,137,55.15530,61.43130
Daedeok-gu,South Korea,752,36.36530,127.44050
Lebanon,United States,6,40.32260,-76.40420
Armilla,Spain,1089,37.13790,-3.61790
Yeonje-gu,South Korea,2972,35.18110,129.09280
Ankara,Türkiye,2044,39.96690,32.87790
Ourense,Spain,574,42.33660,-7.86910
Lolodorf,Cameroon,9,3.23540,10.72890
Botucatu,Brazil,225,-22.88630,-48.44730
Santiago,Chile,123823,-33.45210,-70.65360
Lapu-Lapu City,Philippines,287,10.31300,123.94720
Vespasiano,Brazil,165,-19.68870,-43.92440
Villa Mercedes,Argentina,516,-33.86670,-65.49720
Lomas de Zamora,Argentina,587,-34.75740,-58.40270
Bucheon-si,South Korea,165,37.49870,126.78280
Yesan,South Korea,805,36.67490,126.84090
Dobong-gu,South Korea,2180,37.63900,127.03400
Edison,United States,804,40.52690,-74.33740
Cazadero,United States,4126,38.59230,-123.19460
Yeongcheon-si,South Korea,821,35.96650,128.93430
Jakarta,Indonesia,132787,-6.21140,106.84460
Gdansk,Poland,153,54.41600,18.57550
Dongguan,China,445,23.01770,113.75060
Leicester,United Kingdom,19,52.61810,-1.18040
Rio Tercero,Argentina,169,-32.15750,-64.06850
Liberty Lake,United States,748,47.64500,-117.07780
Zug,Switzerland,165,47.16850,8.50350
Hong Kong,Hong Kong,282530,22.28420,114.17590
Horizonte,Brazil,42657,-4.11240,-38.51620
Bucheon-si,South Korea,145,37.52010,126.82840
Vranje,Serbia,630,42.55450,21.89520
Manerba del Garda,Italy,545,45.54480,10.55360
Temuco,Chile,9875,-38.73150,-72.59920
Ecatepec,Mexico,295,19.49290,-99.03020
Bremen,Germany,521,53.05520,8.74550
Salt Lake City,United States,2344,40.75900,-111.88760
Othon P. Blanco,Mexico,356,18.50040,-88.48010
Yixing,China,14833,31.36260,119.82340
Zaragoza,Spain,262,41.64810,-0.87670
Tiraspol,Moldova,63,46.84110,29.63510
Borso del Grappa,Italy,458,45.81240,11.77030
Dong-gu,South Korea,119,36.33670,127.42210
Lobnya,Russia,70,56.00950,37.48300
Gmina Przedbórz,Poland,2021,51.08980,19.87500
Berlin,Germany,1015,52.54510,13.40970
Stockholm,Sweden,34,59.36910,17.88080
Motala,Sweden,59,58.53340,15.03330
Santo Antonio,Brazil,14813,-14.89820,-39.13310
Buenos Aires,Argentina,23828,-34.61420,-58.38110
Zwolle,The Netherlands,242,52.54150,6.04070
Segura de Leon,Spain,15266,38.11760,-6.51980
Nemours,France,15650,48.27570,2.69360
Higashiosaka,Japan,170,34.66260,135.58790
Kozhikode,India,303,11.21890,75.72680
Auckland,New Zealand,81,-36.88670,174.76900
Mirassol,Brazil,40,-20.82130,-49.52470
Jalandhar,India,381,31.33000,75.58440
Tremembé,Brazil,1314,-23.44970,-46.63780
Izmir,Türkiye,409,38.46000,27.16000
Gangneung,South Korea,805,37.75100,128.89930
Cañuelas,Argentina,3806,-35.10940,-58.77630
Bānka,India,2243,24.87730,86.92930
Gioia Sannitica,Italy,63,41.30230,14.44450
Nal'chik,Russia,580,43.50230,43.60920
Niterói,Brazil,23643,-22.88960,-43.10540
Santa Cruz,Bolivia,104563,-17.78340,-63.18220
Chuncheon,South Korea,756,37.88970,127.73600
Monterrey,Mexico,8201,25.67590,-100.32080
Yuen Long San Hui,Hong Kong,207,22.43620,114.03450
Cascavel,Brazil,21300,-24.96510,-53.45280
Vancouver,Canada,5935,49.24760,-123.12340
Guadalupe,Mexico,1392,25.67940,-100.20660
Nizhnevartovsk,Russia,183,60.92640,76.56280
Lauro Muller,Brazil,743,-28.38380,-49.46700
Hwang Chow,China,1374,30.45790,114.86800
Blumenau,Brazil,36018,-26.87660,-49.09690
Allen,Argentina,2913,-38.96390,-67.83090
Medellín,Colombia,76557,6.25290,-75.56460
Jundiaí,Brazil,4280,-23.21570,-46.89810
Xinguara,Brazil,1661,-6.85370,-49.46350
Bogotá,Colombia,1548,4.60120,-74.06950
General Escobedo,Mexico,229,25.80180,-100.31420
Chicago,United States,147579,41.88740,-87.63180
Vienna,Austria,357,48.19680,16.31910
Macao,Macao,520,22.20100,113.55590
Busanjin-gu,South Korea,11,35.16590,129.05420
Küsnacht,Switzerland,24,47.31570,8.57760
Spello,Italy,1320,42.99450,12.66600
Mariana,Brazil,8,-20.32150,-43.30830
Santos,Brazil,72141,-23.85350,-46.27080
Stoke-on-Trent,United Kingdom,74,53.01690,-2.23690
Dushanbe,Tajikistan,78,38.53470,68.77780
Seuzach Dorf,Switzerland,184,47.54000,8.73630
Cancún,Mexico,7578,20.99080,-86.93920
Khotyn,Ukraine,429,48.50810,26.49410
Bom Retiro do Sul,Brazil,520,-29.63910,-51.91280
Hölö,Sweden,2235,59.00980,17.53400
Brampton,Canada,9,43.66610,-79.80650
Ushuaia,Argentina,14268,-51.39400,-70.60550
Montevideo,Uruguay,97,-34.83670,-56.23670
Yangsan,South Korea,888,35.40970,129.16150
Apodaca,Mexico,32,25.78170,-100.18860
Brugherio,Italy,948,45.55080,9.29950
La Florida,Chile,17,-33.53530,-70.55190
Birkenhead,United Kingdom,165,53.39340,-3.00810
Espinasse-Vozelle,France,72,46.12340,3.32810
Duhok,Iraq,3567,36.85910,42.98700
Bangkok,Thailand,160614,13.80540,100.67510
Aracaju,Brazil,16923,-10.97380,-37.11290
Omiš,Croatia,2878,43.44370,16.68890
Oryol,Russia,18,52.96210,36.07610
Peterborough,United Kingdom,100,52.58520,-0.23600
Galati Mamertino,Italy,351,38.03030,14.77080
Niigata,Japan,189,37.90220,139.01810
Leipzig,Germany,525,51.32350,12.42660
Gangseo-gu,South Korea,6050,37.54380,126.85380
Kaunas,Lithuania,131405,54.90380,23.89240
Rio Branco,Brazil,427,-10.06990,-68.15530
Philadelphia,United States,13,40.09000,-75.03630
Zapopan,Mexico,20514,20.82140,-103.45950
Ningxia,China,193806,37.25340,105.99760
Midoun,Tunisia,2,33.80460,10.98770
Mollet del Vallès,Spain,55,41.53760,2.21090
Mexicali,Mexico,1347,32.63230,-115.31830
Sieniawa,Poland,625,52.36530,15.38450
Guiyang,China,342,26.58000,106.72230
Ann Arbor,United States,9,42.27090,-83.72680
Merlo,Argentina,8459,-34.67400,-58.74730
Benalmádena,Spain,410,36.59960,-4.54590
Vitória,Brazil,17884,-20.30030,-40.30180
Xuzhou,China,51,34.18230,117.15190
Igarassu,Brazil,567,-7.79620,-34.95790
Marhanets,Ukraine,70,47.63580,34.62460
Los Teques,Venezuela,522,10.35270,-67.03480
Madinat an Nasr,Egypt,45,30.07330,31.30400
Gaziantep,Türkiye,9400,37.06460,37.37560
Ōtemae,Japan,1078,34.68370,135.52360
Gwangmyeong,South Korea,376,37.46000,126.87280
Kokubunji,Japan,45,35.70120,139.47570
Bogotá,Colombia,1640,4.64570,-74.09010
Campo Quijano,Argentina,1412,-24.91770,-65.65280
Taichung City,Taiwan,108,24.15470,120.67160
Delicias,Mexico,580,28.19100,-105.47370
Gyeongsan-si,South Korea,582,35.82540,128.73030
Roseto degli Abruzzi,Italy,156,42.67550,14.02050
Naucalpan,Mexico,5,19.51290,-99.23660
Avellaneda,Argentina,16590,-34.65600,-58.37250
Arequipa,Peru,34012,-16.40140,-71.53430
Sapporo,Japan,6,43.08730,141.35800
Prague,Czechia,30517,50.08830,14.41240
Sahāranpur,India,1112,29.96540,77.54280
Eunpyeong-gu,South Korea,238,37.59700,126.91560
Querétaro,Mexico,54,20.52700,-100.31410
Buyeo-gun,South Korea,265,36.26140,126.86590
Sîngera,Moldova,79,46.90680,28.97780
Qom,Iran,119,34.64200,50.87370
Melbourne,Australia,97,-37.80080,144.98760
Salto,Brazil,653,-23.19190,-47.30110
Tiruchirappalli,India,33,10.81000,78.69320
Klågerup,Sweden,245,55.59850,13.24340
Ledeng,Indonesia,200,-6.59060,106.77980
Montreal,Canada,4242,45.49140,-73.74000
Anyang-si,South Korea,192,37.40850,126.96510
Guatire,Venezuela,948,10.46590,-66.54600
Dendermonde,Belgium,64,51.02610,4.10540
Saint-Priest,France,962,45.70880,4.93030
Najaf,Iraq,3,32.02110,44.34120
Santana de Parnaiba,Brazil,2637,-23.44580,-46.91120
Changwon,South Korea,1999,35.23170,128.68220
Tomsk,Russia,16847,56.49110,84.99490
Osio Sotto,Italy,1329,45.62250,9.58990
Sydney,Australia,6509,-33.95260,151.17180
Bradford,United Kingdom,25,53.78170,-1.77760
Shaoxing,China,5520,30.00340,120.56760
Panipat,India,342,29.38850,76.96690
Shangqiu,China,4981,34.45150,115.64790
Pereira,Colombia,891,4.80930,-75.69700
Plottier,Argentina,6033,-38.98030,-68.32850
Chūru,India,483,28.30560,74.96130
Cavriglia,Italy,3946,43.51250,11.50960
Eunpyeong-gu,South Korea,14342,37.64180,126.92030
Barcelona,Spain,105,41.39490,2.17560
Louveira,Brazil,3,-23.08150,-46.93510
Muscat,Oman,8440,23.57800,58.40210
Sao Joao do Ivai,Brazil,811,-23.97920,-51.88260
sa Pobla,Spain,726,39.77700,3.02410
Gyeonggi-do,South Korea,774,37.58560,126.77450
New Delhi,India,18022,28.65200,77.16630
Gumi,South Korea,247,36.11290,128.34330
Luoyang,China,230,34.68080,112.45310
Trenčín,Slovakia,5,48.89220,18.04560
Cataguases,Brazil,6622,-21.34620,-42.64770
Athens,Greece,9086,37.98420,23.73530
Jungnang-gu,South Korea,213,37.60460,127.08880
Seongnam-si,South Korea,10140,37.40620,127.10770
Quzhou,China,96,28.95660,118.85700
Clamart,France,1901,48.80330,2.26790
Ocaña,Spain,4645,39.95650,-3.48890
Norrtälje,Sweden,1196,59.75750,18.71280
Irving,United States,6,32.79900,-96.95600
Kayseri,Türkiye,735,38.74830,35.53010
Eskilstuna,Sweden,75,59.36900,16.50530
Zaragoza,Spain,1924,41.64320,-0.90060
Richardson,United States,21471,32.94730,-96.70280
Las Vegas,United States,4632,36.16850,-115.11640
Andrespol,Poland,17,51.72950,19.64840
Tipton,United Kingdom,1,52.52790,-2.07050
Dnipro,Ukraine,25880,48.46530,35.03300
Hésingue,France,363,47.58180,7.51910
Redmond,United States,108,47.67220,-122.12570
Montevideo,Uruguay,2008,-34.90640,-56.16290
Banqiao,Taiwan,4416,25.01040,121.46840
Bloomington,United States,5975,44.84230,-93.23370
Nottingham,United Kingdom,360,52.90440,-1.23260
Vienna,Austria,1258,48.21550,16.30750
San Francisco,United States,346,37.78090,-122.42450
Kitchener,Canada,9,43.44190,-80.42160
Taboao da Serra,Brazil,6228,-23.61910,-46.78060
Phnom Penh,Cambodia,3121,11.55830,104.91210
Ajikidai,Japan,20,35.86460,140.25860
Mito,Japan,1172,36.35660,140.46230
Seongdong-gu,South Korea,1467,37.56390,127.01880
Montevideo,Uruguay,4313,-34.90550,-56.19440
Phuket,Thailand,20,7.98330,98.36620
Chorrillos,Peru,18,-12.16280,-77.03430
Palmira,Colombia,429,3.54140,-76.30290
Durango,Mexico,6105,23.97540,-104.84570
Vienna,Austria,2187,48.23720,16.37710
Marigliano,Italy,1174,40.92510,14.45800
Leiden,The Netherlands,1245,52.16200,4.49580
Coronel,Chile,5319,-37.03680,-73.15000
Yongin-si,South Korea,2852,37.31040,127.06720
Maracay,Venezuela,385,10.24310,-67.60470
Porto,Portugal,111,41.16910,-8.67930
Suwon,South Korea,1159,37.26770,127.04570
Limeira,Brazil,976,-22.56930,-47.40170
Houston,United States,2485,29.76460,-95.36570
Yongin-si,South Korea,305,37.15410,127.17150
Glenview,United States,69,42.07540,-87.82220
Meppel,The Netherlands,247,52.69580,6.19560
Ciudad Juárez,Mexico,77,31.69370,-106.42350
Willich,Germany,149,51.26720,6.54970
Rio Brilhante,Brazil,6768,-21.77450,-54.45660
Atlanta,United States,3,33.97070,-84.32470
Valledupar,Colombia,2,10.33960,-73.18100
Ladainha,Brazil,340,-17.64370,-41.83260
New York,United States,16,40.75970,-73.98100
Diyarbakır,Türkiye,22417,37.91390,40.22130
Alicante,Spain,3730,38.37120,-0.49350
Yongzhou,China,616,26.42030,111.60650
Khobar,Saudi Arabia,11,26.28460,50.20800
Lille,France,180,50.62400,3.05110
Fresno,United States,3,36.86130,-119.76690
Nuremberg,Germany,50,49.44230,11.01910
Sao Gabriel,Brazil,1414,-18.97300,-40.52950
Talavera de la Reina,Spain,1985,39.96070,-4.82470
Pfaeffikon,Switzerland,694,47.20520,8.78320
Balasore,India,1085,21.50270,86.94010
Chilpancingo,Mexico,10800,17.54870,-99.47890
Ensenada,Mexico,2950,31.88150,-116.59250
Riga,Latvia,1299,56.94960,24.09780
Moses Lake,United States,45,47.14160,-119.28940
Houston,United States,63951,29.74390,-95.60670
Ponte Lambro,Italy,7447,45.82810,9.22230
Uppsala,Sweden,3141,59.85510,17.63430
Brooklyn,United States,258,40.67630,-73.94920
Alejandro Korn,Argentina,3758,-34.98150,-58.38040
Perth,Australia,21,-32.06660,115.78720
Bialet Masse,Argentina,15769,-31.30260,-64.46410
Andong,South Korea,567,36.57420,128.71330
Phra Nakhon Si Ayutthaya,Thailand,17,13.86630,100.56450
Feltham,United Kingdom,1094,51.45360,-0.42330
Virginópolis,Brazil,21,-18.81160,-42.67160
Kristianstad,Sweden,1298,56.02780,14.15060
Ankara,Türkiye,535,39.92820,32.85640
Rozendaal,The Netherlands,1729,52.00890,5.96470
Chervonohrad,Ukraine,1168,50.38720,24.23730
Semarang,Indonesia,4501,-6.99320,110.42150
6th of October City,Egypt,5,29.94360,30.91710
San Jose,United States,107,37.23790,-121.79460
Shumen,Bulgaria,1040,43.26120,26.90860
Brent,United Kingdom,173,51.54280,-0.19780
Mohács,Hungary,774,45.99520,18.69410
Asunción,Paraguay,67031,-25.28690,-57.65110
North Bergen,United States,37033,40.79300,-74.02470
Madrid,Spain,701,40.39850,-3.75110
Pindamonhangaba,Brazil,1926,-22.92450,-45.46530
Buffalo,United States,2661,42.88560,-78.87360
Sincelejo,Colombia,13975,9.30300,-75.39890
Gwangjin-gu,South Korea,1796,37.56550,127.07530
Açucena,Brazil,8315,-19.07460,-42.54250
Arlington,United States,5,38.89240,-77.07570
Parker,United States,3,43.40460,-97.13740
Razgrad,Bulgaria,228,43.53460,26.52750
Nuvolera,Italy,2065,45.53600,10.36190
Timișoara,Romania,5,45.75060,21.23340
Perpignan,France,1003,42.70310,2.89140
Piracanjuba,Brazil,1843,-17.32040,-49.02770
Sao Gabriel,Brazil,26441,-30.32990,-54.32510
Ashburn,United States,56,39.08140,-77.64430
Naples,Italy,12285,40.86700,14.23850
Jaraguá,Brazil,182,-15.65770,-49.43200
Santarém,Brazil,3163,-2.44400,-54.71460
Pierre-Benite,France,153,45.70440,4.82750
Bedford,United Kingdom,96,52.12830,-0.48390
Cúcuta,Colombia,2030,7.89460,-72.50180
Cascavel,Brazil,9,-4.26810,-38.27290
Lakeville,United States,149,44.67070,-93.25880
Talara,Peru,318,-4.57960,-81.27180
São José dos Campos,Brazil,1310,-23.18080,-45.89110
Port Harcourt,Nigeria,32,4.77310,7.00850
Tangier,Morocco,25,35.77580,-5.79090
Asan,South Korea,644,36.77030,126.97250
Tel Aviv,Israel,3675,32.08030,34.78050
Guatemala City,Guatemala,3454,14.64190,-90.51330
Madrid,Spain,1984,40.39400,-3.71880
Yiwu,China,371,29.31870,120.08100
Tinaquillo,Venezuela,4830,9.91820,-68.30030
Islington,United Kingdom,26,51.53600,-0.09250
Dreux,France,6451,48.72910,1.35890
Frankfurt am Main,Germany,13,50.11380,8.65210
Chittagong,Bangladesh,3429,22.34680,91.83000
Willacoochee,United States,12,31.34790,-83.04180
Davao City,Philippines,8471,7.07120,125.60890
Ji Parana,Brazil,2358,-10.88870,-61.95380
Piatra Neamţ,Romania,4505,46.92000,26.37080
Västerås,Sweden,96,59.61460,16.55280
Sao Manuel,Brazil,4259,-22.68410,-48.55440
Governador Valadares,Brazil,16698,-18.84890,-41.95350
Chiyoda-ku,Japan,56,35.68870,139.74500
Valencia,Spain,1924,39.47590,-0.36870
Wyszków,Poland,225,52.59250,21.44720
Assis,Brazil,5870,-22.58640,-50.43030
Toppenstedt,Germany,720,53.26040,10.11430
Montalvânia,Brazil,242,-14.41090,-44.44210
Geochang-gun,South Korea,74,35.68370,127.90990
Kuala Lumpur,Malaysia,123,3.13900,101.72000
Iztapalapa,Mexico,201,19.35830,-99.05810
Santa Luzia,Brazil,5445,-19.73470,-43.82230
Singapore,Singapore,214,1.32480,103.77990
San Pedro,Philippines,867,14.36130,121.05050
Dallas,United States,4,32.71010,-96.85260
Rottenmann,Austria,35,47.51670,14.35000
Alvaro Obregon,Mexico,777,19.35290,-99.22500
Terra Nova do Norte,Brazil,3,-10.49540,-54.95550
Fulham,United Kingdom,208,51.50430,-0.22110
Ankara,Türkiye,2047,39.93200,32.87220
Mogi Mirim,Brazil,114,-22.45100,-46.98810
Ibirubá,Brazil,12770,-28.58630,-53.17890
Tlalpan,Mexico,3,19.28290,-99.22280
Madrid,Spain,725,40.43270,-3.70100
Lelystad,The Netherlands,45,52.50120,5.49050
Granada,Spain,1172,37.17570,-3.59750
Charleston,United States,3,38.34600,-81.63570
Monterrey,Mexico,812,25.75780,-100.41340
Langli,China,31,28.18220,113.10510
Marrakesh,Morocco,9,31.62980,-8.01010
Suwałki,Poland,2182,54.10020,22.92720
Kannur,India,942,11.86530,75.35200
Hwaseong-si,South Korea,984,37.20720,126.81680
Antalya,Türkiye,93,36.89430,30.72090
Cametá,Brazil,3640,-2.29580,-49.49210
Most pri Bratislave,Slovakia,4,48.14750,17.27010
Tampa,United States,9,27.99290,-82.40300
Amelia Rodrigues,Brazil,93,-12.31240,-38.73460
Haeundae-gu,South Korea,255,35.16920,129.17380
Guadalajara,Mexico,78,20.63660,-103.43550
Domodedovo,Russia,18,55.43230,37.76040
Bogotá,Colombia,2558,4.63840,-74.14430
Mozzo,Italy,270,45.69930,9.60970
Osaka,Japan,499,34.69860,135.50790
Bhopal,India,142,23.24870,77.40660
Chihuahua City,Mexico,11,28.99800,-106.22900
Cruz Alta,Brazil,758,-28.64570,-53.60580
Lajeado,Brazil,320,-29.42210,-52.04090
Osaka,Japan,14591,34.69460,135.50210
Santiago de Cali,Colombia,14357,3.41290,-76.51910
Busanjin-gu,South Korea,192,35.19120,129.28840
Chiguayante,Chile,1137,-36.91920,-73.01490
Batu Caves,Malaysia,255,3.22480,101.67800
Budapest,Hungary,35862,47.56360,19.09470
Jaguariaíva,Brazil,10233,-24.34760,-49.66590
Nova Hartz,Brazil,285,-29.60010,-50.90640
Caetano Jose,Brazil,708,-20.31940,-44.20560
Gunpo,South Korea,1811,37.36660,126.95120
New York,United States,169129,40.71570,-74.00000
Changzhou,China,34240,31.76850,119.95270
Esenler,Türkiye,297,41.04150,28.87340
Aizawl,India,6067,23.72850,92.71880
Gustavo Adolfo Madero,Mexico,6635,19.44490,-99.05640
Montevideo,Uruguay,37,-34.90070,-56.12910
Auckland,New Zealand,6471,-36.85060,174.76790
Bend,United States,848,44.05970,-121.31570
Pretoria,South Africa,9,-25.75140,28.16460
Oberá,Argentina,1036,-27.48810,-55.16850
Gangnam-gu,South Korea,12195,37.52450,127.03540
Canoinhas,Brazil,7586,-26.27330,-50.50570
Itaporanga,Brazil,588,-23.66200,-49.47440
Tijuana,Mexico,1238,32.36020,-116.73320
Araras,Brazil,493,-22.36100,-47.38400
Columbia,United States,54,35.61730,-87.03170
Zaporizhzhya,Ukraine,1086,47.79570,35.04890
Tremblay-en-France,France,238,48.94970,2.56240
Rovellasca,Italy,280,45.67110,9.04910
Murcia,Spain,779,37.99210,-1.12010
Ellenabad,India,1339,29.45050,74.65880
Karachi,Pakistan,197,24.95510,66.99830
Suyicun,China,1808,32.23550,119.97990
Joaquim Pires,Brazil,5,-3.53810,-42.07740
Casa Nova,Brazil,3,-9.10270,-41.16050
Armavir,Russia,53,45.01710,41.13260
Buan-gun,South Korea,72,35.76110,126.69500
Colombo,Sri Lanka,208,6.87410,79.85720
Simferopol,Ukraine,1026,44.96070,34.10510
Cabimas,Venezuela,2931,10.41170,-71.43200
Santo Domingo Este,Dominican Republic,1476,18.49200,-69.87010
Cuauhtémoc,Mexico,32,19.45360,-99.14040
Chicago,United States,24,41.92150,-87.64460
Tarnowskie Gory,Poland,49,50.45260,18.85710
Naucalpan,Mexico,31,19.45880,-99.25780
Santomera,Spain,4013,38.06500,-1.05760
Querétaro City,Mexico,507,20.57620,-100.29510
Bialystok,Poland,43,53.12870,23.19530
Târgu Mureş,Romania,5,46.54280,24.56920
Afula,Israel,6,32.61130,35.28850
Glasgow,United Kingdom,465,55.84860,-4.22160
Zamora,Mexico,1987,20.15270,-102.45570
Huetor Vega,Spain,715,37.14770,-3.56550
Hortolândia,Brazil,400,-22.86870,-47.21200
Quilmes,Argentina,7937,-34.71890,-58.26040
Espinosa,Brazil,39,-14.85980,-42.99180
Laboulaye,Argentina,786,-34.05570,-63.47960
Queluz,Portugal,260,38.75840,-9.24950
Muğla,Türkiye,22,37.21670,28.36740
Rostov-on-Don,Russia,1640,47.23610,39.71890
Lawton,United States,27,34.58970,-98.37110
Salamanca,Spain,3104,40.97010,-5.66340
Makassar,Indonesia,856,-5.15200,119.43700
Mérida,Mexico,316,20.97160,-89.64130
Prague,Czechia,238,50.11330,14.40680
Cinisello Balsamo,Italy,1990,45.55850,9.21770
Catania,Italy,1475,37.49250,15.07010
Bucharest,Romania,5948,44.42910,26.10060
Alcalá de Henares,Spain,4696,40.47900,-3.35650
Gustavo Adolfo Madero,Mexico,7690,19.47840,-99.09030
Sokołów Podlaski,Poland,95,52.40540,22.24470
San Diego,United States,19,32.95110,-117.22410
Yokohama,Japan,277,35.43460,139.64830
Slepnya,Belarus,420,53.92280,27.64150
Cape Town,South Africa,6215,-34.04860,18.48110
Vientiane,Laos,1017,17.96410,102.59870
Brusque,Brazil,48,-27.11470,-48.89970
Nepi,Italy,157,42.24380,12.34490
Marinette,United States,149,45.09250,-87.67090
Pilar,Argentina,36709,-34.46620,-58.97910
Chiba,Japan,4267,35.60290,140.11870
Yongin-si,South Korea,3779,37.29800,127.07770
Cruz Alta,Brazil,753,-28.72930,-53.57470
Pátrai,Greece,120,38.24750,21.73110
Hyderabad,India,18924,17.37240,78.43780
Singapore,Singapore,2,1.30070,103.91590
San Joaquin,Chile,10622,-34.06260,-70.62940
Dracena,Brazil,463,-21.57970,-51.60040
Januária,Brazil,4530,-15.28640,-44.98400
João Pessoa,Brazil,6216,-7.11400,-34.86050
Orleans,Brazil,18906,-28.29620,-49.36350
Piedmont,United States,4,44.23230,-103.36720
Chiswick,United Kingdom,289,51.49360,-0.25830
Zhoukou,China,53,33.63000,114.63530
Cluj-Napoca,Romania,1059,46.76570,23.59430
Mari,Brazil,13827,-7.07390,-35.30300
Tokorozawa,Japan,477,35.79640,139.46900
Ruidoso Downs,United States,21,33.35650,-105.53750
Benito Juarez,Mexico,297,19.37160,-99.15630
New Milford,United States,15,41.57820,-73.41500
Chiclayo,Peru,856,-6.77110,-79.84310
Rolândia,Brazil,932,-23.27610,-51.43020
Berlin,Germany,2443,52.47460,13.41640
Muar town,Malaysia,196,2.00510,102.73350
Krasnoyarsk,Russia,854,56.01330,92.78850
Campina Grande,Brazil,7613,-7.27820,-35.97630
Sundsvall,Sweden,268,62.37720,17.32030
Barreiras,Brazil,10963,-11.93330,-45.49240
Bečej,Serbia,41,45.61620,20.03410
Buenos Aires,Argentina,155180,-36.00000,-59.99640
Amsterdam,The Netherlands,57954,52.40590,4.82980
Santa Teresita,Argentina,91,-36.53310,-56.68090
Raipur,India,3356,21.23390,81.63280
Mason,United States,48,39.33600,-84.31260
Bilbao,Spain,1493,43.26980,-2.93830
Luohe,China,55,33.58040,114.04540
Palmeira dos Indios,Brazil,215,-9.41000,-36.60340
Lincoln City,United States,18,44.91020,-123.99100
Mersin,Türkiye,180,36.79050,34.59080
Wuchang,China,679,44.94420,127.08480
Murmansk,Russia,5,68.97020,33.07800
Bugry,Russia,81,59.64080,30.20760
Pak Kret,Thailand,3656,13.91810,100.49740
General Belgrano,Argentina,1224,-35.90790,-58.61860
Olinda,Brazil,3492,-8.00090,-34.86870
Djurhamn,Sweden,48,59.29690,18.67910
Yangon,Myanmar,42199,16.79640,96.16670
Gwangju,South Korea,630,37.47390,127.23310
Mandirituba,Brazil,897,-25.84680,-49.33110
Queens,United States,20,40.66000,-73.83900
Ecatepec,Mexico,2167,19.49400,-99.03830
Chyzhykiv,Ukraine,164,49.78550,24.25960
Taizhou,China,443,28.66370,121.42900
Kottayam,India,661,9.58130,76.52630
Brussels,Belgium,3,50.90560,4.39260
Valsād,India,438,20.60630,72.93560
Osasco,Brazil,13299,-23.52150,-46.78730
Altamira,Brazil,627,-3.20520,-52.20290
Mons,Belgium,59,50.45800,3.95240
Isfahan,Iran,301,32.65750,51.67750
Warsaw,Poland,244,52.15510,21.06340
Arujá,Brazil,801,-23.38180,-46.31220
Azogues,Ecuador,1986,-2.73600,-78.85010
Mexico City,Mexico,8226,19.42030,-99.11930
Kansas City,United States,544,39.10290,-94.57130
Porto Alegre,Brazil,76271,-30.02730,-51.23530
Nasugbu,Philippines,480,14.07270,120.62280
Bogotá,Colombia,1167,4.63130,-74.03440
Dulles,United States,20,39.00190,-77.45560
Dharmadam,India,22,11.77760,75.45960
Tuluá,Colombia,511,4.08330,-76.19540
Itaboraí,Brazil,7317,-22.75610,-42.87030
Skopje,North Macedonia,2833,41.99850,21.43130
Quezon City,Philippines,10204,14.66250,121.07560
Abaetetuba,Brazil,76,-1.73570,-48.94290
Zdolbuniv,Ukraine,729,50.52720,26.24070
Tlalpan,Mexico,45,19.28940,-99.13290
Geumcheon-gu,South Korea,7040,37.47840,126.89820
Gustavo Adolfo Madero,Mexico,2096,19.50990,-99.13850
Tasikmalaya,Indonesia,3187,-7.32630,108.22100
Caratinga,Brazil,1770,-19.75880,-42.12700
Yangp'yong,South Korea,318,37.48390,127.52740
Lahore,Pakistan,251,31.51490,74.34640
Vaestra Froelunda,Sweden,8,57.64420,11.93320
Milwaukee,United States,148,43.11660,-87.99040
Lesparre-Médoc,France,13963,45.30780,-0.93350
Lozova,Ukraine,2,48.88670,36.31900
Petrolândia,Brazil,327,-8.83950,-38.30100
Enfield,United Kingdom,711,51.65390,-0.08880
San Javier,Spain,16054,37.80930,-0.83110
Los Angeles,United States,8,34.10040,-118.29460
Queens,United States,9,40.72600,-73.84800
Velserbroek,The Netherlands,24,52.43270,4.65960
Mercedes,Argentina,1069,-29.06310,-58.11610
Tlalpan,Mexico,1073,19.26780,-99.17650
Sacramento,Brazil,287,-19.88040,-47.22600
Petaling Jaya,Malaysia,22450,3.09950,101.60540
Valby,Denmark,3453,55.65340,12.48590
Palmeira,Brazil,171,-25.44220,-50.08130
Makati City,Philippines,1503,14.55130,121.04110
Kandern,Germany,1422,47.71020,7.66420
Kunshan,China,191,31.38620,120.94960
Denpasar,Indonesia,22,-8.65070,115.21240
Hampyeong-gun,South Korea,725,35.16710,126.64130
Sapucaia do Sul,Brazil,2370,-29.82460,-51.14950
Paulínia,Brazil,240,-22.74190,-47.13800
Gresik,Indonesia,284,-7.15110,112.66110
Norsborg,Sweden,62,59.25390,17.78530
Los Palacios y Villafranca,Spain,13320,37.16450,-5.92320
Rezé,France,546,47.18720,-1.56940
Palembang,Indonesia,4108,-2.91460,104.75350
Recife,Brazil,3805,-8.00910,-34.94980
Ramallah,Palestine,1092,31.90140,35.19990
Staten Island,United States,4073,40.60630,-74.17740
Jeonju,South Korea,1430,35.82970,127.17210
Miguel Hidalgo,Mexico,872,19.45920,-99.19890
Civitanova Marche,Italy,33,43.31830,13.67750
Saransk,Russia,399,54.17860,45.18440
Gomez Palacio,Mexico,173,25.73420,-103.46190
Korolyov,Russia,184,55.91580,37.82630
Lowestoft,United Kingdom,7154,52.50270,1.70680
Cheongju-si,South Korea,216,36.62510,127.50960
Luis Eduardo Magalhaes,Brazil,190,-12.09330,-45.78930
Mohali,India,199,30.67400,76.72490
Abu Dhabi,United Arab Emirates,10555,24.45420,54.40600
Balneario Picarras,Brazil,149,-26.75580,-48.74590
Calaocan District,Philippines,25,15.69440,121.17530
Bursa,Türkiye,75,40.27390,29.09650
Debrecen,Hungary,1287,47.53740,21.65140
Motril,Spain,17611,36.75200,-3.51760
Pasig,Philippines,33,14.57850,121.06660
Johor Bahru,Malaysia,1904,1.46210,103.75590
Valle del Guamuez,Colombia,437,0.45050,-76.91760
Coyoacán,Mexico,1803,19.37900,-99.04670
Batumi,Georgia,579,41.64730,41.62580
Haikou,China,367,20.04730,110.37150
Extrema,Brazil,16336,-22.82950,-46.28120
Menouf,Egypt,9,30.46550,30.94130
Elgin,United States,27,42.03820,-88.26200
Eumseong-gun,South Korea,1092,36.88120,127.70020
Tatuí,Brazil,17951,-23.35340,-47.84240
Itabaiana,Brazil,4331,-7.36300,-35.36690
Valenzuela,Philippines,232,14.71400,120.96450
Junqueiro,Brazil,1783,-9.88510,-36.45550
Novokuznetsk,Russia,4,53.74380,87.09790
Pinhais,Brazil,8279,-25.42350,-49.15580
Tarczyn,Poland,130,51.98750,20.83230
Mandaluyong,Philippines,357,14.59320,121.02580
Rio do Campo,Brazil,1868,-26.86120,-50.11140
Golden,United States,2481,39.82320,-105.28250
Sorong,Indonesia,491,-0.88330,131.25980
Itaúna,Brazil,7205,-20.06890,-44.58830
Traverse City,United States,24,44.76030,-85.61800
Apodaca,Mexico,1379,25.82430,-100.19090
Irvine,United States,5,33.67200,-117.74020
Al Quoz,United Arab Emirates,57,25.13000,55.23250
Aguia Branca,Brazil,110,-18.99620,-40.70730
Council Bluffs,United States,943,41.25910,-95.85170
Nellore,India,2486,14.44840,79.98880
Valledupar,Colombia,1261,10.46530,-73.24980
Lisbon,Portugal,28530,38.73100,-9.13730
Gramado,Brazil,259,-29.37630,-50.87390
Passo Fundo,Brazil,870,-28.28660,-52.44370
Greenwich,United Kingdom,8,51.48050,-0.01130
Valladolid,Spain,822,41.65260,-4.73430
Jiujiang,China,3109,29.71510,115.99160
Sao Sebastiao do Paraiso,Brazil,1271,-20.91550,-47.01640
La Roche-sur-Yon,France,9644,46.67350,-1.44710
Mokpo-si,South Korea,166,34.81330,126.38740
Hiroshima,Japan,3,34.39270,132.45010
Aveiro,Portugal,28,40.65010,-8.65020
Putian,China,199,25.45360,118.99290
Fulham,United Kingdom,458,51.48900,-0.21500
Montreal,Canada,541,45.49940,-73.57030
Los Angeles,United States,109,33.97200,-118.24200
Ica,Peru,20621,-14.06410,-75.72920
Eshowe,South Africa,2,-28.88090,31.46470
Lahug,Philippines,11764,10.33870,123.89980
Mostar,Bosnia and Herzegovina,125,43.34260,17.81100
Guaranésia,Brazil,45,-21.28820,-46.82230
Pedrezuela,Spain,4683,40.73870,-3.60860
Zhongshan,China,1049,22.53260,113.36460
Minneapolis,United States,8805,44.98340,-93.26220
Zurich,Switzerland,342,47.43000,8.57180
Pallini,Greece,225,38.00180,23.88090
Ithaca,United States,3,42.44440,-76.49260
Moguer,Spain,764,37.27780,-6.83250
Mogi Guacu,Brazil,8191,-22.36900,-46.94820
Gimhae,South Korea,194,35.17440,128.83140
Alicante,Spain,2175,38.36910,-0.47140
Pelotas,Brazil,14707,-31.77000,-52.34100
São Lourenço,Brazil,256,-22.11540,-45.02930
Xaxim,Brazil,31,-26.98350,-52.51500
Montreal,Canada,710,45.52780,-73.66840
Istanbul,Türkiye,8904,41.05510,28.93470
Slough,United Kingdom,40298,51.53680,-0.67180
Ljungby,Sweden,243,56.82940,13.94020
Singapore,Singapore,22,1.39310,103.88170
Radlin,Poland,2787,50.04270,18.47470
Orihuela,Spain,766,38.08450,-0.96120
Istanbul,Türkiye,49,41.01070,28.93450
Galena,United States,2014,40.19920,-82.87960
Gustavo Adolfo Madero,Mexico,480,19.45950,-99.09690
Fukuyama,Japan,288,34.48040,133.37160
Banyumas,Indonesia,4945,-7.51230,109.30030
Plymouth,United Kingdom,201,50.39890,-4.17270
Pedreiras,Brazil,208,-4.58660,-44.59950
Seo-gu,South Korea,709,35.12320,129.01850
Ajalvir,Spain,626,40.53240,-3.47350
Worcester,United States,45,42.25550,-71.77190
Benlloch,Spain,1294,39.99170,-0.05540
Mexico City,Mexico,386,19.40770,-99.15880
New York,United States,34347,40.71230,-74.00680
Boothbay,United States,42,43.89470,-69.63070
Ryazan,Russia,33,54.61610,39.73760
Saint-Nazaire,France,396,47.27290,-2.22620
Grentzingen,France,63,47.56310,7.29880
Pune,India,11439,18.61610,73.72860
Stoughton,United States,30,42.12460,-71.11490
Cardiff,United Kingdom,1322,51.48660,-3.15490
Betim,Brazil,28917,-19.95460,-44.19090
João Pessoa,Brazil,4787,-7.17120,-34.86170
Buritis,Brazil,16378,-10.48150,-63.85190
Belišće,Croatia,20937,45.67820,18.40320
Guarulhos,Brazil,2449,-23.47940,-46.51160
Montevideo,Uruguay,118,-34.91200,-56.20680
Abbottabad,Pakistan,131,34.24920,73.25050
Moncks Corner,United States,276,33.19620,-80.02450
Foz do Iguaçu,Brazil,2941,-25.55260,-54.58770
Marondera,Zimbabwe,24,-18.18140,31.55330
Dehradun,India,3815,30.32750,78.03250
Tower Hamlets,United Kingdom,376,51.50260,-0.06680
Bursa,Türkiye,710,40.19040,29.02660
Barcarena Nova,Brazil,3218,-1.54660,-48.63250
Vinnytsia,Ukraine,918,49.23350,28.48170
Balakhna,Russia,781,56.49040,43.58900
Girona,Spain,480,41.97720,2.78990
Toyota,Japan,7657,35.07120,137.17100
Gwanak-gu,South Korea,5756,37.48730,126.92270
Prague,Czechia,959,50.08530,14.46140
Candeias,Brazil,4387,-12.65570,-38.48700
Ichibachō,Japan,366,35.59730,140.14230
Parnaíba,Brazil,3361,-2.90120,-41.78260
Sao Jose do Rio Preto,Brazil,183,-20.81880,-49.37110
Tigre,Argentina,2678,-34.42310,-58.58300
Šiauliai,Lithuania,1593,55.93180,23.32890
Corupá,Brazil,11095,-26.42080,-49.31660
Næstved,Denmark,59,55.22520,11.75490
Purwodadi Grobogan,Indonesia,108,-7.08960,110.92330
Haskell,United States,18,35.80890,-95.68350
Macapá,Brazil,30466,0.03310,-51.06340
Seo-gu,South Korea,1037,36.29300,127.33570
Bursa,Türkiye,845,40.23440,29.01740
Tulcán,Ecuador,1005,0.80000,-77.71670
Harbin,China,18548,45.77870,126.59750
Siechnice,Poland,124,51.03490,17.15430
Kediri,Indonesia,37757,-7.81750,112.01900
Alem Paraiba,Brazil,228,-21.80940,-42.75740
La Libertad,El Salvador,121,13.96880,-89.68450
Brest,France,3188,48.38770,-4.48390
Brignais,France,545,45.66900,4.75960
Oaxaca City,Mexico,1438,17.11560,-96.74620
Doullens,France,46,50.15590,2.33050
Noumea,New Caledonia,91,-22.26650,166.47420
Pekanbaru,Indonesia,1671,0.53950,101.44570
Toronto,Canada,2056,43.70900,-79.40570
Joinville,Brazil,53117,-26.26590,-48.99870
Banda Aceh,Indonesia,7220,5.54180,95.34130
Shīrvān,Iran,97,33.77450,48.79100
Amsterdam,The Netherlands,60454,52.35200,4.93920
Eindhoven,The Netherlands,151,51.48980,5.47660
Bendorf,Germany,2,50.42260,7.58560
Ādīgrat,Ethiopia,21,14.27710,39.46490
Ranchi,India,2315,23.34260,85.30990
Sorocaba,Brazil,4036,-23.47360,-47.44250
La Paz,Mexico,37,24.13860,-110.28130
Madrid,Spain,1073,40.37730,-3.67860
North Charleston,United States,45996,32.86080,-79.97460
Ensenada,Mexico,1191,31.86860,-116.58960
Córdoba,Mexico,162,18.89410,-96.93490
Lopburi,Thailand,109,14.80250,100.61810
Farmington,United States,429,42.95690,-77.30790
Oldbury,United Kingdom,198,52.47480,-2.00890
Paraná,Argentina,2832,-31.72790,-60.52930
Bangkok,Thailand,960,13.85900,100.47720
Santa Barbara d'Oeste,Brazil,7774,-22.74890,-47.40990
Xalapa,Mexico,4180,19.54000,-96.88910
Roseville,United States,5,38.76800,-121.33490
Rio Grande,Brazil,531,-32.02800,-52.09690
Boston,United States,926,42.35910,-71.04120
Garching,Germany,209,48.25500,11.65510
Az Zamalik,Egypt,5,30.06490,31.22470
São Luís,Brazil,46114,-2.64950,-44.30440
Governador Valadares,Brazil,3276,-18.79340,-41.99710
Hamīrpur,India,103,31.68660,76.52180
Coyoacán,Mexico,180,19.34060,-99.15210
Sanxia District,Taiwan,438,24.93370,121.37200
Van,Türkiye,2318,38.42070,43.23280
San Cristóbal de La Laguna,Spain,1474,28.46560,-16.29230
Wuhu,China,273,31.35220,118.44510
Utinga,Brazil,308,-12.04640,-41.19570
Zabrze,Poland,905,50.32960,18.77430
Christchurch,New Zealand,66,-43.44920,172.65400
Ulan-Ude,Russia,1172,51.82860,107.61890
Naxos,Greece,90,37.10430,25.37280
Anápolis,Brazil,4653,-16.32930,-48.95090
Stanfordville,United States,17,41.88740,-73.69830
Warren,United States,9,42.47230,-82.99670
Jacksonville,United States,707,30.32980,-81.64920
Turbenthal,Switzerland,345,47.43810,8.87180
Ahome,Mexico,167,25.79090,-109.00650
Copenhagen,Denmark,18,55.66200,12.61820
Pohang,South Korea,1495,36.03420,129.37070
Istanbul,Türkiye,18363,41.04880,28.95170
Bouchain,France,5268,50.28220,3.31580
Villa Carlos Paz,Argentina,845,-31.39990,-64.51430
Dharamsala,India,704,32.21460,76.31370
Walsall,United Kingdom,37,52.58760,-1.98280
Luque,Paraguay,1993,-25.27330,-57.49350
Phoenix,United States,36,33.46560,-111.99560
Caloocan City,Philippines,78,14.64380,120.96320
Amsterdam,The Netherlands,729163,52.37590,4.89750
Vinhedo,Brazil,3723,-23.05640,-46.98340
Kaifeng,China,1557,34.80620,114.27630
Malé,Maldives,114,4.17720,73.51070
Nābha,India,294,30.37970,76.15280
Mount Prospect,United States,43,42.06480,-87.93560
Dublin,Ireland,100,53.30530,-6.26720
San Juan del Río,Mexico,1475,20.39350,-99.97160
Pretoria,South Africa,19,-25.75990,28.26040
Andradina,Brazil,1877,-20.89680,-51.37750
Frankfurt am Main,Germany,677,50.11890,8.69210
Croix,France,264,50.68070,3.14910
Botucatu,Brazil,1086,-22.87090,-48.52190
Bogotá,Colombia,1359,4.63060,-74.12740
Ismailia,Egypt,142,30.60460,32.27590
Tokyo,Japan,70339,35.68930,139.68990
Alcantarilla,Spain,2018,37.96640,-1.21700
Maceió,Brazil,41776,-9.57500,-35.69080
Stocksund,Sweden,101,59.39440,18.05550
Aurangabad,India,108,19.86100,75.39290
Besançon,France,180,47.24550,6.02090
Adamov,Czechia,17,49.30310,16.65820
Sayama,Japan,432,35.85490,139.39190
Zhubei,Taiwan,2162,24.83510,121.00560
Nanchang,China,7540,28.67960,115.86550
Melbourne,Australia,142,-37.83710,145.21600
Lüleburgaz,Türkiye,366,41.40630,27.35980
Berlin,Germany,65,52.52010,13.44250
Balneário Camboriú,Brazil,9737,-26.98730,-48.62760
Zurich,Switzerland,28,47.39520,8.49250
Cariacica,Brazil,375,-20.29600,-40.47960
Miranda,Venezuela,39907,10.24620,-66.41650
Nova Venecia,Brazil,1352,-18.67670,-40.55510
Apodaca,Mexico,1779,25.79300,-100.25300
Bryansk,Russia,70259,53.28590,34.36910
Tres de Febrero,Argentina,797,-34.60370,-58.56300
Maubourguet,France,704,43.47010,0.03650
São José dos Pinhais,Brazil,25561,-25.52830,-49.21610
Waltham,United States,9,42.36600,-71.22710
Stenlille,Denmark,575,55.54210,11.58630
Paranaguá,Brazil,4365,-25.56570,-48.51960
Davenport,United States,30,28.19510,-81.60620
Bonghwa-gun,South Korea,465,36.88790,128.73400
Tatuí,Brazil,13474,-23.35580,-47.85630
Borja,Spain,3885,41.83640,-1.52480
Cochabamba,Bolivia,35827,-17.38170,-66.13800
Windermere,United States,6,28.49860,-81.53530
Edmonton,Canada,4,53.53490,-113.51810
Araripe,Brazil,6,-7.20720,-40.11260
Goyang-si,South Korea,1042,37.64680,126.88430
Hamburg,Germany,780,53.57590,9.94920
Chapadinha,Brazil,7,-3.69280,-43.46290
Nandyāl,India,735,15.47800,78.48360
Tagum,Philippines,1562,7.44690,125.80390
Roseville,United States,3,38.76480,-121.28550
Guaramirim,Brazil,8795,-26.46050,-48.93480
Singapore,Singapore,3,1.30360,103.85540
Fujioka,Japan,6,36.23660,139.09260
Sibiu,Romania,355,45.80170,24.14550
Pati,Indonesia,99,-6.75590,111.03800
Ciudad Fernandez,Mexico,2,21.94340,-100.01030
Geneva,Switzerland,11038,46.19110,6.14040
Kasur,Pakistan,10445,30.99170,74.27480
Addis Ababa,Ethiopia,154,9.02600,38.74390
Järna,Sweden,13,59.10270,17.56720
Uijeongbu-si,South Korea,29,37.73380,127.07050
Long An,Vietnam,18,10.42200,106.42200
Barra de Sao Francisco,Brazil,11,-18.63370,-40.80210
Varginha,Brazil,26807,-21.55150,-45.42670
Kansas City,United States,3,39.03530,-94.46360
Suseong-gu,South Korea,282,35.84810,128.69680
Ciudad Juárez,Mexico,462,31.64050,-106.41870
Acapulco de Juárez,Mexico,154,17.03340,-99.78640
Dobong-gu,South Korea,99,37.67500,127.04960
Hosūr,India,3154,12.73330,77.83670
Phuket,Thailand,7185,7.95000,98.35640
Seongnam-si,South Korea,986,37.37700,127.10910
Surrey,Canada,3,49.19630,-122.81060
Howrah,India,151,22.57400,88.31910
Ballarat,Australia,151,-37.56910,143.85610
Barcelona,Spain,10350,41.38700,2.17010
Ikebukuro,Japan,11,35.72830,139.72190
Ourinhos,Brazil,2307,-22.96160,-49.86320
Fort Payne,United States,435,34.48750,-85.76720
Macaúbas,Brazil,17627,-13.19170,-42.68330
North Vancouver,Canada,6,49.35270,-123.06860
Lagoa,Brazil,30,-6.59520,-37.84990
Mexico City,Mexico,111,19.41470,-99.17170
Singapore,Singapore,8,1.33520,103.85290
Sokcho,South Korea,979,38.20860,128.59650
Semey,Kazakhstan,36,50.42730,80.27210
Cassano d'Adda,Italy,485,45.52510,9.51800
Salt Lake City,United States,28,40.65960,-111.91950
Imbābah,Egypt,33,30.07800,31.22640
Ness Ziona,Israel,2424,31.92860,34.80700
Crateús,Brazil,548,-5.25080,-40.74330
Katrineholm,Sweden,1017,58.99270,16.20800
Bratislava,Slovakia,2128,48.17620,17.14140
Danyang-gun,South Korea,50,36.98480,128.37350
Bytom,Poland,78,50.35420,18.91970
Bannay,France,427,49.12460,6.46390
Kuzhithurai,India,660,8.31650,77.18820
Uibaí,Brazil,2810,-11.39060,-42.15610
Benito Juarez,Mexico,5608,19.53600,-99.14410
Junín,Argentina,69,-34.57680,-60.94700
Poá,Brazil,14815,-23.53690,-46.34350
Los Angeles,United States,950,34.05150,-118.27070
Gangdong-gu,South Korea,985,37.55540,127.15150
Salerno,Italy,1033,40.66110,14.80520
Vinh,Vietnam,60,18.67280,105.69630
Solânea,Brazil,21839,-6.73320,-35.69500
San Leandro,United States,12,37.70470,-122.12450
Durham,United States,926,35.98060,-78.84260
Bogotá,Colombia,2,4.69830,-74.09720
Chicago,United States,54,41.89720,-87.61960
Itajubá,Brazil,3206,-22.42310,-45.42470
Kraljevo,Serbia,496,43.72240,20.68310
Tepic,Mexico,7073,21.62120,-104.84300
Concepción de la Vega,Dominican Republic,582,19.22810,-70.51350
Reims,France,2293,49.26270,4.03240
Gavà,Spain,472,41.30460,1.99620
Weinan,China,13995,34.50250,109.51450
Sierpc,Poland,11,52.85280,19.66770
Kuala Lumpur,Malaysia,188,3.17900,101.68680
Edmond,United States,5,35.62110,-97.47570
La Paz,Mexico,33,19.64270,-99.01580
DeRidder,United States,3,30.82980,-93.27280
Huejutla de Reyes,Mexico,123,21.13010,-98.51780
Iztapalapa,Mexico,1228,19.41030,-99.09720
Agualva,Portugal,3479,38.77260,-9.29310
Burgos,Spain,4581,42.33970,-3.70220
Quito,Ecuador,52033,-0.23090,-78.52110
Deurne,Belgium,1640,51.21980,4.46710
Cagayan de Oro,Philippines,35327,8.48500,124.64800
Vine Grove,United States,27,37.85940,-86.00190
Aguascalientes,Mexico,294,21.84840,-102.20890
Mocoa,Colombia,11067,1.15040,-76.65530
Sao Joao de Meriti,Brazil,619,-22.80510,-43.36860
Hakozaki,Japan,966,33.63180,130.40530
Lubawka,Poland,679,50.70790,15.99350
Itaobim,Brazil,214,-16.56330,-41.53490
Lahore,Pakistan,9392,31.58260,74.32760
Gaziantep,Türkiye,157,37.01780,37.35910
Haiphong,Vietnam,31,20.85590,106.66970
Piedras Negras,Mexico,3251,28.55940,-100.50850
Jung-gu,South Korea,53,37.46760,126.62000
Franca,Brazil,20767,-20.56890,-47.33470
Araraquara,Brazil,7934,-21.83880,-48.20780
Ibirité,Brazil,6480,-20.01730,-44.07410
Roseburg,United States,282,43.22940,-123.23920
Arae 1-chōme,Japan,71,33.57380,130.36170
Gleisdorf,Austria,342,47.10230,15.70160
Saltsjoe-Boo,Sweden,2,59.31410,18.25170
Dhaka,Bangladesh,1646,23.70040,90.42870
Acaraú,Brazil,5168,-2.95420,-40.08600
Tláhuac,Mexico,96,19.29570,-99.03490
Itu,Brazil,41,-23.27480,-47.29650
Bombinhas,Brazil,9,-27.17920,-48.49760
Porto Alegre,Brazil,45890,-30.11690,-51.26580
Vitória da Conquista,Brazil,1235,-15.28210,-40.96760
Valença,Brazil,578,-13.37060,-39.23650
Marechal Candido Rondon,Brazil,1422,-24.60890,-54.14450
Lanús,Argentina,24338,-34.72630,-58.42020
Mueang Samut Prakan,Thailand,796,13.59810,100.59250
Istanbul,Türkiye,2435,40.99930,28.93610
Changteh,China,780,29.03540,111.69710
Fragagnano,Italy,119,40.43100,17.48050
Boryeong,South Korea,65,36.35200,126.60230
Caruaru,Brazil,10426,-8.17920,-36.02790
Osaka,Japan,8843,34.68920,135.48990
Desterro de Entre Rios,Brazil,59,-20.64070,-44.28020
Trenggalek,Indonesia,76,-8.08050,111.70510
Texcoco,Mexico,33,19.45310,-98.90920
Brasilandia de Minas,Brazil,15,-16.93060,-45.96380
Santo Domingo,Dominican Republic,996,18.48720,-69.88250
Río Gallegos,Argentina,1429,-51.62330,-69.21600
Samsun,Türkiye,832,41.15960,36.37820
Gujranwala,Pakistan,2409,32.27220,72.93900
Rafal,Spain,1271,38.10310,-0.84420
Brussels,Belgium,720,50.83740,4.40760
Durham,United States,21,35.99350,-78.90320
Katowice,Poland,591,50.26030,19.02570
Gwangjin-gu,South Korea,232,37.54090,127.07620
Busan,South Korea,8086,35.10250,129.03940
Hamilton,Canada,10,43.19620,-79.84570
Portugalete,Spain,574,43.32260,-3.01670
Pawtucket,United States,18,41.87400,-71.38440
Miaoli,Taiwan,96,24.56410,120.82750
Lewisham,United Kingdom,1137,51.46430,-0.01190
Taipei,Taiwan,33380,25.05040,121.53240
Yaroslavl,Russia,143,57.63660,39.89820
Kermanshah,Iran,795,34.31170,47.06110
Lu'an,China,4146,31.72790,116.51570
Salt Lake City,United States,1122,40.75450,-111.88300
Izumo,Japan,3355,35.36460,132.74790
Mapo-gu,South Korea,4460,37.56810,126.89980
Itapetininga,Brazil,285,-23.64460,-48.12970
Seocho-gu,South Korea,455,37.48160,127.04640
Bucaramanga,Colombia,2809,7.12240,-73.12220
North Kansas City,United States,4515,39.12470,-94.55900
San Jose,United States,307097,37.18350,-121.77140
Villa Alemana,Chile,2070,-33.03140,-71.38320
Sharjah,United Arab Emirates,7891,25.34120,55.42240
Lenoir,United States,804,35.91880,-81.54030
Marialva,Brazil,167,-23.52970,-51.91150
Newham,United Kingdom,5,51.52770,0.02520
Suwon,South Korea,21,37.29630,127.05060
Uehara,Japan,18,35.67230,139.69390
Remígio,Brazil,6355,-6.95360,-35.85670
Mogi das Cruzes,Brazil,3333,-23.56770,-46.18330
Wroclaw,Poland,781,51.11550,17.03490
Jincheng,China,198,35.49630,112.83100
Toulon,France,14,43.12630,5.92570
Noji,Japan,580,35.02980,135.93610
Sao Mateus do Sul,Brazil,1113,-25.92120,-50.48420
Vienna,Austria,3135,48.23240,16.35180
Villavicencio,Colombia,275,4.14090,-73.62600
Astana,Kazakhstan,1691,51.18760,71.44910
Taichung,Taiwan,55557,24.14400,120.68440
Mykolayiv,Ukraine,967,46.96740,32.00370
Paulista,Brazil,449,-7.92510,-34.91750
Lentate sul Seveso,Italy,1377,45.67680,9.11840
Trindade,Brazil,4873,-16.65130,-49.56710
Arese,Italy,121,45.55050,9.07740
Rancho Queimado,Brazil,3708,-27.70730,-49.07160
Campillo de Arenas,Spain,10809,37.55890,-3.63810
Lambaré,Paraguay,7755,-25.34380,-57.60790
Belford Roxo,Brazil,586,-22.76670,-43.39640
Benalmadena Costa,Spain,2369,36.59540,-4.54020
Stuttgart,Germany,1671,48.76700,9.18270
Itaituba,Brazil,764,-4.27760,-55.98230
